time,pos_x,pos_y,pos_z,roll,pitch,yaw,vel_x,vel_y,vel_z,p,q,r,flap_angle,flap_rate,elevator,rudder,force_x,force_y,force_z,moment_x,moment_y,moment_z
0.0,0.0,0.0,-7.200588939830281e-05,3.4218492896212555e-07,0.0003792425169901637,-3.470664325045952e-08,0.0,0.0,-0.07200588939830281,0.00034218492896212553,0.3792425169901637,-3.470664325045952e-05,0.0,65.79736267392904,0.0,0.0,0.0,0.0,-45.24418683726146,0.0,8.187840491939205,0.0
0.001,0.000650874219108301,-2.799622878202588e-11,-0.00019380889629203033,6.425217111535331e-07,0.0007121303117358887,-6.524237346158968e-08,0.650874219108301,-2.799622878202588e-08,-0.12180300689372751,0.00030033678219140746,0.33288779474572494,-3.0535730211130154e-05,0.0657540782894591,65.66752660866987,0.0,0.0,359.91628464764443,0.0,-32.962735584849575,-2.6214494315781365e-07,-1.0007977868799482,3.952423707408572e-08
0.002,0.000610532232035055,-7.900282650489232e-11,-0.0003593907002162131,1.973047656152984e-06,0.0021866886339224696,-2.0030975722685632e-07,-0.04034198707324599,-5.100659772286644e-08,-0.16558180392418276,0.001330525944999451,1.474558322186581,-0.00013506738376526663,0.13124865527209065,65.27853081652549,0.0,0.0,-382.26884761926146,0.0,-29.75442083242516,1.4723370249267944e-06,24.648650279856447,3.7064186621228026e-07
0.003,0.0012372057373370307,-3.7512692756333845e-10,-0.0005258655766806094,2.069213126772061e-06,0.002294146234104775,-2.1128840144132818e-07,0.6266735053019757,-2.961241010584461e-07,-0.16647487646439632,9.616547061907718e-05,0.10745760018230532,-1.0978644214471863e-05,0.19622525377417013,64.6319104861722,0.0,0.0,368.7126841652584,0.0,-5.885890047964974,-1.266038929569078e-05,-29.515684930662406,1.7117434044041522e-06
0.004,0.0012052199177289258,-7.006814785599555e-10,-0.000690829151919928,3.939884315382515e-06,0.004367715680838725,-4.022105925418097e-07,-0.03198581960810498,-3.25554550996617e-07,-0.16496357523931857,0.001870671188610454,2.07356944673395,-0.0001909221911004815,0.26042744084639413,63.73021753264119,0.0,0.0,-364.2609448589537,0.0,-4.626405626079627,9.035977143952523e-06,42.44832650509105,7.232995890586284e-07
0.005,0.0017941419539036075,-1.3795941987398663e-09,-0.0008098573892190211,3.573438782456801e-06,0.003964278547747403,-3.6841151531824123e-07,0.5889220361746816,-6.789127201799108e-07,-0.11902823729909306,-0.0003664455329257144,-0.4034371330913218,3.379907722356846e-05,0.32360183978757767,62.577010526075725,0.0,0.0,343.1491886948786,0.0,20.014041250602812,-3.339667775847384e-05,-53.47853643216787,4.658316772908384e-06
0.006,0.0017702009248447364,-2.0698570807595528e-09,-0.0008859619293558814,5.529328916694398e-06,0.006133681742782556,-5.70156892607453e-07,-0.023941029058871077,-6.902628820196865e-07,-0.07610454013686027,0.001955890134237597,2.1694031950351533,-0.00020174537728921186,0.38549913010673764,61.17684064768054,0.0,0.0,-338.9082256642515,0.0,18.443306097479184,1.6058514126974844e-05,55.54758569705198,1.5496042287448308e-06
0.007,0.0023110976873634784,-2.9680616040170846e-09,-0.0008751281170568971,4.517004984084066e-06,0.005017038726090092,-4.732207229755094e-07,0.540896762518742,-8.982045232575317e-07,0.010833812298984322,-0.0010123239326103313,-1.1166430166924637,9.693616963194366e-05,0.44587503147716623,59.535233728288915,0.0,0.0,312.23072306471,0.0,42.68080251748479,-5.24836274737867e-05,-70.94569044112906,7.3474986449151455e-06
0.008,0.002297942023549991,-3.9739891933352375e-09,-0.0007862335487624323,6.1276387142504406e-06,0.006806138473550669,-6.428357158428137e-07,-0.01315566381348754,-1.0059275893181528e-06,0.08889456829446482,0.0016106337301663742,1.7890997474605768,-0.00016961499286730436,0.50449126779928,57.65866844043279,0.0,0.0,-306.4248986493555,0.0,38.076742032215456,2.1615079384801164e-05,62.73494450189315,2.549272499803758e-06
0.009000000000000001,0.0027844028096487986,-4.899104722455064e-09,-0.0005783637145005386,4.356693708789506e-06,0.004851582896724389,-4.710618575428303e-07,0.48646078609880755,-9.251155291198266e-07,0.2078698342618937,-0.001770945005460935,-1.9545555768262797,0.00017177385829998342,0.5611165075675266,55.55455072998223,0.0,0.0,276.3389240727681,0.0,60.38153357716613,-6.219909429082086e-05,-80.82546459627909,8.683165326009118e-06
0.01,0.0027875731639746162,-6.3186577499490625e-09,-0.00026450247560141926,5.238393892826677e-06,0.0058356323074378776,-5.701429676088344e-07,0.0031703543258176925,-1.4195530274939982e-06,0.3138612388991194,0.0008817001840371714,0.9840494107134878,-9.908111006600408e-05,0.6155272768301522,53.23118458826043,0.0,0.0,-267.5106082732504,0.0,53.71418110806459,2.493285368360381e-05,63.44443942947377,3.352993054227499e-06
0.011,0.0032175052676982376,-7.512569815135112e-09,0.00019050279646332124,2.6491033917050252e-06,0.0029765949109555826,-3.1762318486721485e-07,0.42993210372362134,-1.1939120651860493e-06,0.4550052720647405,-0.0025892905011216517,-2.859037396482295,0.00025251978274161955,0.6675088411387929,50.69773927998374,0.0,0.0,236.13838649667787,0.0,72.62608747035696,-5.90231557197042e-05,-82.97218888635301,8.199419847642798e-06
0.012,0.003244316546027104,-1.0019181373919507e-08,0.0007723524255272135,2.4828398640885483e-06,0.0028019078004932795,-3.148946966579956e-07,0.026811278328866373,-2.5066115587843953e-06,0.5818496290638923,-0.0001662635276164768,-0.1746871104623029,2.7284882092192724e-06,0.7168560530072408,47.964213156362874,0.0,0.0,-223.66134926821715,0.0,65.39976661025901,2.5736540488564114e-05,57.95508407645735,3.7429889694316777e-06
0.013000000000000001,0.002922376346710737,-1.2646967413736117e-08,0.001508630056386781,4.369545736268957e-06,0.0049053592051069034,-5.203729777805553e-07,-0.32194019931636686,-2.6277860398166096e-06,0.7362776308595674,0.001886705872180408,2.1034514046136246,-0.0002054782811225597,0.7633741615348472,45.041394196178445,0.0,0.0,-192.93097509322848,0.0,79.97636631031693,-4.458201386608959e-05,49.184977843396055,6.1597876292414186e-06
0.014,0.0028970213694598235,-1.3994643434957934e-08,0.002417286115208363,3.1546682363685576e-06,0.0035939119530543004,-4.1562416776998576e-07,-0.025354977250913457,-1.3476760212218172e-06,0.9086560588215818,-0.0012148774999003993,-1.311447252052603,0.00010474881001056954,0.806879580999356,41.94081743055737,0.0,0.0,164.84146117021294,0.0,90.27488954613781,-0.00035602437280744657,-73.72761260583275,-4.136484371577558e-05
0.015,0.0026058083457982306,-1.647452390894625e-08,0.003488847430293573,3.509992261288183e-06,0.004025793176583286,-4.713075880409197e-07,-0.2912130236615928,-2.4798804739883133e-06,1.0715613150852101,0.00035532402491962557,0.43188122352898595,-5.5683420270933914e-05,0.8472006153858765,38.67471941947474,0.0,0.0,-147.6979812775705,0.0,84.64332355090141,-4.700760105053272e-05,37.63843677682529,-5.79795135056751e-06
0.016,0.0025362147973224175,-1.8624310878439117e-08,0.004734626478363033,1.2564886925914452e-06,0.0015841757576375102,-2.6411515558953807e-07,-0.06959354847581312,-2.149786969492867e-06,1.24577904806946,-0.0022535035686967377,-2.4416174189457758,0.00020719243245138162,0.8841781359926135,35.25598995964206,0.0,0.0,122.78965151862988,0.0,90.98707079936872,-0.000284503185150447,-62.038794143673925,-3.183023334898182e-05
0.017,0.0022805723768999937,-2.357937432316643e-08,0.006147533785220123,-3.43083728980829e-09,0.0002475065535291253,-1.6107439710435135e-07,-0.25564242042242363,-4.955063444727313e-06,1.4129073068570897,-0.0012599195298812534,-1.336669204108385,0.0001030407584851867,0.9176662094391544,31.69812121436837,0.0,0.0,-104.57568907585667,0.0,86.9030377059048,-5.325486579947166e-05,23.85581612624605,-5.729621700558012e-06
0.018000000000000002,0.001908215395788153,-3.0288212227847615e-08,0.007733696870366952,-7.340902248104414e-07,-0.0004890663574303509,-1.138293984071063e-07,-0.3723569811118408,-6.708837904681182e-06,1.5861630851468298,-0.0007306593875206331,-0.7365729109594762,4.7244998697245044e-05,0.9475326735988511,28.015154466155664,0.0,0.0,-65.58888486266966,0.0,90.1965502929377,-0.00021304939662160742,12.956070534943652,-2.250502236957387e-05
0.019,0.0016031243892494422,-3.813120137786219e-08,0.009495443618591549,-2.624221077168615e-06,-0.002486283416843848,4.85662109007415e-08,-0.30509100653871074,-7.842989150014576e-06,1.761746748224596,-0.0018901308523581735,-1.9972170594134968,0.0001623956093078478,0.9736596591823548,24.221624702171663,0.0,0.0,36.55465349699628,0.0,91.52116609328236,-0.00038772874896413756,-27.21728870345833,-4.105530441613424e-05
0.02,0.001225110813946636,-4.92288339808677e-08,0.011430895058638821,-4.459463433515234e-06,-0.0044043301488019115,2.01740547020922e-07,-0.37801357530280616,-1.1097632603005504e-05,1.9354514400472718,-0.001835242356346619,-1.918046731958064,0.0001531743361201805,0.9959440549138519,20.332503251295908,0.0,0.0,-42.25847326117571,0.0,90.29682022503349,-0.00028719838290119736,1.7092864872775297,-2.968536240023827e-05
0.021,0.0008058258339525404,-6.377684423025415e-08,0.013540519034951804,-6.517941011551448e-06,-0.006544620401106411,3.734648198369331e-07,-0.41928497999409553,-1.4548010249386445e-05,2.109623976312983,-0.0020584775780362135,-2.1402902523044998,0.00017172427281601107,1.014297914464162,16.363138699124438,0.0,0.0,-24.852088016957314,0.0,90.4915838032844,-0.0003961852544392638,-4.7982340580943985,-4.0668857881354324e-05
0.022,0.0003635015582320213,-8.253153816849353e-08,0.015824182024761647,-8.990159024082558e-06,-0.00911384860195732,5.822191793137258e-07,-0.44232427572051913,-1.875469393823939e-05,2.2836629898098435,-0.002472218012531111,-2.569228200850908,0.00020875435947679264,1.028648803534721,12.32919631411452,0.0,0.0,-15.202136502012952,0.0,90.32250313022105,-0.00046575537822278826,-9.260763730822273,-4.7355742442516994e-05
0.023,-9.027956858728497e-05,-1.0675144155173926e-07,0.01828178200809323,-1.200865465242079e-05,-0.012256476901354974,8.402160191203333e-07,-0.4537811268193062,-2.4219903383245725e-05,2.457599983331583,-0.0030184956283382317,-3.1426282993976535,0.0002579968398066075,1.0389400857226652,8.246596223926783,0.0,0.0,-9.530787348338382,0.0,90.1340058475152,-0.0005019411306321852,-12.3796994415581,-5.030960100761659e-05
0.024,-0.0005431059587753732,-1.3815477420298923e-07,0.020913594550428648,-1.568186037404545e-05,-0.016091756622223695,1.156718543319119e-06,-0.4528263901880883,-3.140333265124998e-05,2.6318125423354166,-0.0036732057216246608,-3.8352797208687193,0.0003165025241987856,1.0451311460388377,4.131450585954652,0.0,0.0,-3.6765395356090655,0.0,90.126408462443,-0.0005126816337190208,-14.954333781012027,-5.0404771910321314e-05
0.025,-0.0009874574130437038,-1.789282339343223e-07,0.023720450413536428,-2.006912304302303e-05,-0.02068582723157196,1.5353289236103166e-06,-0.4443514542683305,-4.077345973133309e-05,2.806855863107779,-0.004387262668977579,-4.594070609348265,0.00037861038029119766,1.0471975511965976,4.028926479548237e-15,0.0,0.0,-0.8079042568595879,0.0,90.41432493780182,-0.000501023449187232,-16.382283934886907,-4.8149092095985876e-05
0.026000000000000002,-0.0014186753637674282,-2.3165116325648144e-07,0.026703836175739258,-2.518909504127954e-05,-0.026060335789232177,1.9747760734150606e-06,-0.43121795072372443,-5.272292932215912e-05,2.983385762202829,-0.0051199719982565105,-5.374508557660215,0.0004394471498047438,1.0451311460388377,-4.131450585954658,0.0,0.0,0.2441622344779975,0.0,91.06838070949686,-0.0004777028547435983,-16.84964366815489,-4.473806265325666e-05
0.027,-0.0018362351041583181,-2.992126220016464e-07,0.029866180989969345,-3.101966254206006e-05,-0.032191824281494114,2.4689519265889305e-06,-0.41755974039089006,-6.756145874516493e-05,3.1623448142300856,-0.005830567500780523,-6.131488492261936,0.0004941758531738699,1.0389400857226652,-8.246596223926776,0.0,0.0,-1.1725806446500147,0.0,92.25964369907537,-0.0004512570384378667,-16.343185515316193,-4.1147592535670104e-05
0.028,-0.0022439106503927293,-3.8470213718868106e-07,0.033210977417453824,-3.7501338966409167e-05,-0.03901498447550252,3.007443801331699e-06,-0.407675546234411,-8.548951518703463e-05,3.344796427484476,-0.006481676424349105,-6.823160194008411,0.0005384918747427688,1.0286488035347212,-12.329196314114512,0.0,0.0,-5.082036484187495,0.0,94.05779777471574,-0.00043005201136906633,-14.933181728742294,-3.8255098431557466e-05
0.029,-0.0026490377679204784,-4.912847912008584e-07,0.03674265092796246,-4.454238020999512e-05,-0.04642790982565102,3.576364993523192e-06,-0.40512711752774916,-0.00010658265401217734,3.531673510508633,-0.007041041243585953,-7.4129253501485035,0.000568921192191493,1.014297914464162,-16.363138699124445,0.0,0.0,-10.999730289214005,0.0,96.38398106486413,-0.0004212916288692354,-12.733020885698194,-3.677270757491817e-05
0.03,-0.003062694348291552,-6.220676291673014e-07,0.04046634088462527,-5.2022966403284895e-05,-0.05429639279851545,4.159166020163703e-06,-0.41365658037107395,-0.00013078283796644306,3.7236899566628106,-0.007480586193289776,-7.86848297286442,0.0005828010266405112,0.995944054913852,-20.3325032512959,0.0,0.0,-18.94257298190255,0.0,99.10525402458589,-0.00043112259029252274,-9.835482164278424,-3.730281476455478e-05
0.031,-0.003499462343470903,-7.799557841656258e-07,0.04438760115086912,-5.980073579375589e-05,-0.06245968753799134,4.737607377354013e-06,-0.4367679951793507,-0.00015788815499832436,3.9212602662438516,-0.007777769390470994,-8.16329473947589,0.0005784413571903098,0.9736596591823548,-24.221624702171656,0.0,0.0,-28.688987358130213,0.0,102.03951447880092,-0.00046640870798545636,-6.3649814157291384,-4.050978334672665e-05
0.032,-0.003977169060340712,-9.675051396728505e-07,0.04851201547625339,-6.771693065672343e-05,-0.07073684023459612,5.292747852974076e-06,-0.47770671686980853,-0.00018754935550722467,4.124414325384271,-0.007916194862967536,-8.27715269660477,0.0005551404756200627,0.947532673598851,-28.015154466155668,0.0,0.0,-40.00224690903589,0.0,104.95814122603335,-0.0005358717217304773,-2.458191214205772,-4.726542837121981e-05
0.033,-0.004516618674323937,-1.1867770547376577e-06,0.05284472446433033,-7.560309560069992e-05,-0.07893343385672386,5.805877387395604e-06,-0.5394496139832252,-0.0002192719150648072,4.332708988076939,-0.007886164943976506,-8.196593622127732,0.0005131295344215286,0.9176662094391542,-31.69812121436839,0.0,0.0,-52.63893873759775,0.0,107.58899556059524,-0.0006513670018541599,1.7392698005089904,-5.8787136287112934e-05
0.034,-0.0051413223457394104,-1.4392019702434494e-06,0.05738986936729165,-8.32882579817169e-05,-0.08684860781058915,6.259335083062059e-06,-0.6247036714154733,-0.0002524249155057916,4.545144902961326,-0.007685162381016977,-7.9151739538652865,0.0004534576956664552,0.8841781359926134,-35.25598995964208,0.0,0.0,-66.35667039954916,0.0,109.62385106412293,-0.0008287297723887763,6.075847285867619,-7.67166835585094e-05
0.035,-0.005877228596406668,-1.725460419377373e-06,0.062149969160092314,-9.060650310160009e-05,-0.0942822368076809,6.6371718787605556e-06,-0.7359062506672575,-0.00028625844913392353,4.7600997928006645,-0.00731824511988318,-7.433628997091759,0.000377836795698496,0.8472006153858765,-38.674719419474734,0.0,0.0,-80.9189844482891,0.0,110.73118663293585,-0.0010879409723338629,10.396549615209251,-0.00010310850759319689
0.036000000000000004,-0.00675245919928089,-2.0453919267189388e-06,0.06712525911546431,-9.74048105003598e-05,-0.10104215670607519,6.9256387486891974e-06,-0.8752306028742225,-0.00031993150734156576,4.975289955372004,-0.006798307398759715,-6.759919898394286,0.00028846686992864174,0.806879580999356,-41.94081743055737,0.0,0.0,-96.10345276393338,0.0,110.57416362232361,-0.0014524413558532536,14.545370999954246,-0.0001403070372039706
0.037,-0.0077937630197362235,-2.3979440229679018e-06,0.07231303146031896,-0.00010355898379346985,-0.10696021422349426,7.114317882897952e-06,-1.0413038204553333,-0.0003525520962489628,5.187772344854654,-0.006154173293110051,-5.918057517419066,0.0001886791342087551,0.7633741615348474,-45.04139419617843,0.0,0.0,-109.89008143391253,0.0,108.8336837293732,-0.0019475340049404885,18.175798388823143,-0.0001907077853049092
0.038,-0.009018968355800266,-2.7812158481808467e-06,0.0777070925701353,-0.00010901065550743018,-0.11193203721115287,7.199236732272933e-06,-1.2252053360640422,-0.000383271825212945,5.394061109816342,-0.005451671713960338,-4.971822987658604,8.491884937498032e-05,0.7168560530072409,-47.96421315636286,0.0,0.0,-118.0963411035228,0.0,105.27590036653767,-0.0025921191563035378,20.429192157979198,-0.0002560072414674033
0.039,-0.010377971422160936,-3.1927270662980367e-06,0.08329761822898041,-0.00011407792719495608,-0.11626170527391413,7.213665223307831e-06,-1.3590030663606694,-0.00041151121811719004,5.590525658845095,-0.005067271687525892,-4.329668062761268,1.4428491034898497e-05,0.6675088411387932,-50.697739279983736,0.0,0.0,-88.21471784956746,0.0,99.88531347170007,-0.0033782373080982983,13.86411856373043,-0.0003352542949208656
0.04,-0.011706513128476275,-3.6314349124496183e-06,0.08907396899251553,-0.00011988779794652647,-0.12115557460042095,7.271171028623326e-06,-1.328541706315338,-0.00043870784615158173,5.776350763535126,-0.005809870751570393,-4.893869326506815,5.750580531549512e-05,0.6155272768301523,-53.231184588260426,0.0,0.0,4.088992235788284,0.0,94.11910681429637,-0.004066723458012498,-12.18109359780659,-0.0004057087904724904
0.041,-0.013001656161987913,-4.102457302691177e-06,0.09503175922844372,-0.0001264174680834957,-0.12658700440881976,7.366471884043889e-06,-1.295143033511639,-0.00047102239024155823,5.957790235928182,-0.0065296701369692315,-5.431429808398821,9.530085542056259e-05,0.5611165075675266,-55.55455072998223,0.0,0.0,3.492525495259642,0.0,91.35542103339428,-0.004076116727987626,-11.605919504018988,-0.0004086440177915294
0.042,-0.01426066960353792,-4.611026391571709e-06,0.10116415288824958,-0.00013364373453973193,-0.13252871962294463,7.494018266318661e-06,-1.2590134415500063,-0.0005085690888805322,6.132393659805858,-0.007226266456236229,-5.941715214124876,0.0001275463822747726,0.5044912677992799,-57.65866844043279,0.0,0.0,2.769853768666332,0.0,87.28410580993983,-0.0040875343831203335,-11.01705100451404,-0.00041227425145737247
0.043000000000000003,-0.015480992093578378,-5.162446862263306e-06,0.1074615616670556,-0.00014154195049657857,-0.13895186099694462,7.64795777381698e-06,-1.2203224900404597,-0.0005514204706915964,6.297408778806027,-0.007898215956846652,-6.423141373999986,0.00015393950749831894,0.44587503147716606,-59.535233728288915,0.0,0.0,1.9633264802868404,0.0,81.7391778334395,-0.004097779086438478,-10.393980306606565,-0.00041617805767126047
0.044,-0.01666021055303433,-5.762038913116573e-06,0.11391164888191367,-0.00015008584195371212,-0.14582599456750836,7.822192776283198e-06,-1.179218459455951,-0.0005995920508532672,6.450087214858072,-0.008543891457133563,-6.874133570563733,0.00017423500246621724,0.38549913010673786,-61.17684064768054,0.0,0.0,1.1135315041284501,0.0,74.72395258944073,-0.004103531475740615,-9.73691148673373,-0.0004199234234744305
0.045,-0.017796037331838124,-6.415072803644552e-06,0.12049936545425097,-0.00015924701944899854,-0.15311878747366786,8.010408400950414e-06,-1.135826778803796,-0.0006530338905279787,6.587716572337289,-0.009161177495286426,-7.292792906159512,0.00018821562466721508,0.32360183978757784,-62.577010526075725,0.0,0.0,0.26455958212322483,0.0,66.2590104270591,-0.004101423444107763,-9.038845502183033,-0.0004230707229888139
0.046,-0.018511744087836284,-7.126694043123541e-06,0.12720709293259594,-0.00017027110702246895,-0.16221054613549085,8.335585480705812e-06,-0.7157067559981616,-0.0007116212394789891,6.707727478344964,-0.011024087573470401,-9.091758661823,0.0003251770797553978,0.26042744084639413,-63.73021753264119,0.0,0.0,206.5860918012374,0.0,56.42388271309538,-0.004088256145810771,-38.83964130627519,-0.0004252003387469888
0.047,-0.019305859170955432,-7.910372699901716e-06,0.134022822371979,-0.00018153636567252724,-0.17135976797964034,8.62208404507494e-06,-0.7941150831191475,-0.000783678656778175,6.815729439383036,-0.01126525865005828,-9.149221844149498,0.0002864985643691283,0.19622525377417008,-64.6319104861722,0.0,0.0,-76.20840467569977,0.0,50.77298429775213,-0.0031400725860820777,-1.240626664061422,-0.0003468731925798674
0.048,-0.019664539294703055,-8.76883985929892e-06,0.14092198797769465,-0.0001938718367110641,-0.1814724857910586,8.95228632634261e-06,-0.3586801237476222,-0.0008584671593972032,6.899165605715655,-0.012335471038536855,-10.112717811418252,0.0003302022812676704,0.13124865527209045,-65.27853081652549,0.0,0.0,207.23628728511906,0.0,36.77688863323423,-0.003332007931528226,-20.80186131807824,-0.00036301109254993245
0.049,-0.019583801473680086,-9.71040952500958e-06,0.14788439045139584,-0.0002068550785207681,-0.19211436521563505,9.275879265684464e-06,0.08073782102296928,-0.00094156966571066,6.962402473701198,-0.012983241809704012,-10.641879424576455,0.0003235929393418535,0.06575407828945933,-65.66752660866987,0.0,0.0,205.39477339268817,0.0,27.628288012281033,-0.0027507781797452796,-11.42458941188532,-0.0003264272723804834
0.05,-0.01906266041565491,-1.0740391797044237e-05,0.1548867618288905,-0.0002200773139616657,-0.20285277962744352,9.546818924080715e-06,0.5211410580251766,-0.001029982272034658,7.002371377494651,-0.013222235440897576,-10.738414411808476,0.0002709396583962512,1.2824471291478598e-16,-65.79736267392904,0.0,0.0,203.60534274217665,0.0,17.25282340195637,-0.0023946203819965057,-2.0841871274717807,-0.0003100170046857564
0.051000000000000004,-0.018328567271274764,-1.1860967554065517e-05,0.1619045591013754,-0.0002333574210533181,-0.21349384848712613,9.762135012962105e-06,0.7340931443801464,-0.0011205757570212794,7.017797272484911,-0.013280107091652381,-10.641068859682612,0.0002153160888813895,-0.06575407828945908,-65.66752660866987,0.0,0.0,77.27295010804878,0.0,6.311545716600471,-0.002236295524354576,2.101690818843417,0.000311812387654789
0.052000000000000005,-0.017289138284394878,-1.3072636771043485e-05,0.16891223764592275,-0.00024626988803814126,-0.22356609433756508,9.879834571261794e-06,1.0394289868798854,-0.0012116692169779673,7.00767854454734,-0.012912466984823177,-10.072245850438962,0.00011769955829968903,-0.13124865527209068,-65.27853081652549,0.0,0.0,128.70382613694412,0.0,-6.57763468212803,-0.0022268253900150194,12.280882316535084,0.0003193876250281925
0.053,-0.015951551413888578,-1.4372529702716783e-05,0.17588644017681998,-0.0002585220670879688,-0.2327381864674661,9.876742126977005e-06,1.3375868705063003,-0.0012998929316732986,6.974202530897239,-0.01225217904982756,-9.172092129901035,-3.0924442847900864e-06,-0.1962252537741698,-64.6319104861722,0.0,0.0,127.05162929751141,0.0,-18.012577081864094,-0.002348154950068141,19.43430771690444,0.00034731952857591135
0.054,-0.014419217114801132,-1.575536563256059e-05,0.1828064614401427,-0.00027013876901093036,-0.24102392638573195,9.764941181480576e-06,1.5323342990874456,-0.001382835929843805,6.920021263322723,-0.011616701922961522,-8.285739918265845,-0.0001118009454964295,-0.2604274408463939,-63.7302175326412,0.0,0.0,73.57222918174759,0.0,-28.456433820883145,-0.002589439540410056,19.13633356314278,0.0003906131315400781
0.055,-0.01282756589096926,-1.7215805081263723e-05,0.18965330721289195,-0.00028146380559664454,-0.24879035505689007,9.587852380749327e-06,1.5916512238318732,-0.0014604394487031346,6.846845772749239,-0.011325036585714173,-7.766428671158127,-0.00017708880073124945,-0.32360183978757756,-62.57701052607573,0.0,0.0,2.389538722437696,0.0,-38.71297711293966,-0.002836588692622004,11.211924646929424,0.00043148741945711524
0.056,-0.01106122617242589,-1.8750782321723257e-05,0.1964081112415917,-0.0002917958647467773,-0.25525460841776737,9.27885079862813e-06,1.766339718543369,-0.001534977240459532,6.754804028699729,-0.010332059150132772,-6.464253360877329,-0.00030900158212119727,-0.3854991301067376,-61.17684064768055,0.0,0.0,68.53245412524271,0.0,-49.32109737051419,-0.0029391320144018652,28.113948614815843,0.00044802445017970503
0.057,-0.009400987416602617,-2.035218481560146e-05,0.203058126571367,-0.0003026152442709977,-0.26203502448779753,8.998581603766439e-06,1.6602387558232743,-0.0016014024938782036,6.650015329775298,-0.010819379524220392,-6.780416070030144,-0.0002802691948616919,-0.44587503147716623,-59.53523372828891,0.0,0.0,-81.45069729858224,0.0,-56.883107262847645,-0.0033323880513994584,-6.825945585932249,0.0005100924580596297
0.058,-0.007587157858356581,-2.2022147735619304e-05,0.2095844258338525,-0.0003121811273796316,-0.2672184069739094,8.56769525954196e-06,1.8138295582460353,-0.0016699629200178443,6.526299262485519,-0.009565883108633893,-5.183382486111883,-0.0004308863442244797,-0.5044912677992801,-57.658668440432784,0.0,0.0,61.406324839019454,0.0,-67.42954280435285,-0.003065016616664602,34.47993462444996,0.00046837799085513326
0.059000000000000004,-0.005876202477183032,-2.3750743900091596e-05,0.21598004041884775,-0.0003221995329989583,-0.27266793698966196,8.170345469543998e-06,1.7109553811735487,-0.0017285961644722917,6.3956145849952355,-0.010018405619326686,-5.449530015752524,-0.0003973497899979618,-0.5611165075675268,-55.554550729982225,0.0,0.0,-74.16402262253388,0.0,-72.30183181937866,-0.0035518296953034297,-5.746118363336849,0.0005441941029621953
0.06,-0.004037714344554135,-2.5539623181122022e-05,0.22223058616404648,-0.00033085279393605695,-0.2763870391537679,7.620095674429307e-06,1.838488132628898,-0.0017888792810304272,6.250545745198724,-0.008653260937098632,-3.7191021641059523,-0.0005502497951146914,-0.6155272768301521,-53.23118458826044,0.0,0.0,52.712793588780606,0.0,-80.29145089930493,-0.003259714410533626,37.3599151435067,0.0004988237162849664
0.061,-0.002431038432616932,-2.737838420180313e-05,0.22833364004411283,-0.0003412377678208425,-0.28177760362201615,7.240712159947846e-06,1.606675911937203,-0.0018387610206811078,6.103053880066353,-0.010384973884785506,-5.390564468248267,-0.0003793835144814613,-0.6675088411387929,-50.69773927998374,0.0,0.0,-139.56706431548002,0.0,-83.00088215942873,-0.003792025253770235,-36.086843905968145,0.000581163870706075
0.062,-0.0006574029576986436,-2.9276622253185992e-05,0.23427272888057224,-0.00034979058293531406,-0.28494337868256586,6.660745836364596e-06,1.7736354749182883,-0.0018982380513828606,5.9390888364593994,-0.008552815114471602,-3.165775060549738,-0.0005799663235832491,-0.7168560530072408,-47.964213156362874,0.0,0.0,75.64401873049508,0.0,-91.09417126922092,-0.0028947434008620445,48.03317368570401,0.0004427801348517246
0.063,0.0009299789600752031,-3.122125163209109e-05,0.2400506851684596,-0.00035977101353645467,-0.28945800506060043,6.2226899216119516e-06,1.5873819177738466,-0.0019446293789050983,5.7779562878873545,-0.009980430601140584,-4.514626378034555,-0.0004380559147526447,-0.7633741615348469,-45.04139419617847,0.0,0.0,-111.87065910539124,0.0,-91.20741688102241,-0.003581204481400635,-29.121677532643165,0.0005488490308598226
0.064,0.002599857235339068,-3.321938063952123e-05,0.24565695858008216,-0.0003684579507093652,-0.2923517389694779,5.643390296705677e-06,1.6698782752638648,-0.001998129007430142,5.606273411622563,-0.008686937172910573,-2.893733908877497,-0.0005792996249062749,-0.8068795809993562,-41.94081743055735,0.0,0.0,32.743759691201305,0.0,-96.17682619866753,-0.0028143135745580423,34.99504739701398,0.0004308556339440457
0.065,0.00413403058122007,-3.526168836435867e-05,0.25109393890091003,-0.00037813802401480233,-0.296135564275673,5.162412449544719e-06,1.5341733458810018,-0.002042307724837439,5.436980320827892,-0.009680073305437083,-3.783825306195091,-0.00048097784716095835,-0.8472006153858764,-38.67471941947475,0.0,0.0,-82.45268892241756,0.0,-96.14161522524375,-0.00323079514585292,-19.217057775456617,0.0004949786050008105
0.066,0.0057273348371335055,-3.7352240445411104e-05,0.25635652020151595,-0.00038669971938313683,-0.2985037105265363,4.561209260808613e-06,1.593304255913436,-0.0020905520810524333,5.26258130060592,-0.00856169536833448,-2.3681462508632674,-0.000601203188736106,-0.8841781359926137,-35.255989959642044,0.0,0.0,22.905890430286032,0.0,-98.42124781298298,-0.0026620952674243294,30.56449260990138,0.00040765552830609455
0.067,0.00723175454815169,-3.9483160435756485e-05,0.26144769796646433,-0.0003957887010403482,-0.30126238705416786,4.012462494360476e-06,1.5044197110181843,-0.0021309199903453836,5.091177764948363,-0.009088981657211365,-2.758676527631568,-0.0005487467664481369,-0.9176662094391543,-31.698121214368378,0.0,0.0,-54.44953101830423,0.0,-97.88460435690745,-0.0029828623121417553,-8.431540585645832,0.00045700028667747933
0.068,0.008712974243836838,-4.165571016492637e-05,0.2663661658579966,-0.0004046284172134589,-0.3035735476268751,3.435627793617993e-06,1.481219695685148,-0.0021725497291698835,4.918467891532295,-0.00883971617311069,-2.3111605727072475,-0.000576834700742483,-0.9475326735988513,-28.01515446615563,0.0,0.0,-18.986728185512263,0.0,-98.39408983036816,-0.002615907649816126,9.661865160807785,0.0004007400249642943
0.069,0.010148788783426994,-4.3866979694948366e-05,0.2711132720524125,-0.0004135283892424291,-0.30578402023268786,2.863489763619712e-06,1.4358145395901567,-0.002211269530021995,4.747106194415892,-0.008899972028970214,-2.2104726058127318,-0.0005721380299982806,-0.9736596591823549,-24.221624702171646,0.0,0.0,-29.773520602744533,0.0,-98.04677380316384,-0.00256953986845249,2.173853848650922,0.00039366538814434817
0.07,0.01155638804242587,-4.611568732616181e-05,0.2756900062949725,-0.0004222912155913293,-0.3076859665415178,2.276101042099305e-06,1.4075992589988744,-0.0022487076312134413,4.576734242559972,-0.008762826348900176,-1.9019463088299464,-0.0005873887215204071,-0.9959440549138519,-20.332503251295915,0.0,0.0,-19.77274655656804,0.0,-97.63382489638849,-0.0024004330424318297,6.661080251820071,0.0003678181196850067
0.07100000000000001,0.01294843073015948,-4.839959906450839e-05,0.28009782403876426,-0.0004307591225110762,-0.3091108517982368,1.658207059291979e-06,1.3920426877336107,-0.0022839117383465805,4.40781774379176,-0.008467906919746962,-1.4248852567189636,-0.0006178939828073262,-1.0142979144641622,-16.36313869912442,0.0,0.0,-11.773523096633278,0.0,-97.10049155487059,-0.002309849828104683,10.299743114643514,0.00035401954242893316
0.07200000000000001,0.014332993511672536,-5.0715819379678844e-05,0.2843382127480897,-0.00043881696947904313,-0.30993378112171466,9.992533056623256e-07,1.3845627815130561,-0.0023162203151704534,4.240388709325399,-0.008057846967966933,-0.8229293234778722,-0.0006589537536296534,-1.0286488035347212,-12.329196314114514,0.0,0.0,-5.959252407471229,0.0,-96.65918114147358,-0.0022805673771232795,12.996221786300374,0.0003496100103027023
0.073,0.01571353711393803,-5.3061061036693575e-05,0.2884123598390028,-0.0004463948467211876,-0.3100773052300992,2.9331761427763173e-07,1.3805436022654936,-0.002345241657014727,4.074147090913143,-0.007577877242144484,-0.14352410838453666,-0.0007059356913846938,-1.038940085722665,-8.246596223926806,0.0,0.0,-2.4977431218150636,0.0,-96.46796996180221,-0.002296395623494399,14.6683506965561,0.0003520944289845373
0.074,0.01708892614035831,-5.543189265200033e-05,0.2923209026526093,-0.0004534696552071858,-0.3095141137011464,-4.610198788138116e-07,1.3753890264202797,-0.002370831615306757,3.9085428136064833,-0.007074808485998163,0.5631915289528133,-0.0007543374930914433,-1.0451311460388377,-4.131450585954704,0.0,0.0,-1.5185205796806227,0.0,-96.63579786139103,-0.0023408666204005964,15.2579823770301,0.00035893809494017773
0.075,0.01845353825632678,-5.7824960408278256e-05,0.2960635623078157,-0.00046006415724687486,-0.3082670038228181,-1.2609632452690878e-06,1.3646121159684705,-0.002393067756277926,3.7426596552064195,-0.006594502039689083,1.2471098783283363,-0.0007999433664552761,-1.0471975511965976,-1.208677943864471e-14,0.0,0.0,-3.0899254419527544,0.0,-97.32888113708381,-0.0023963959419732836,14.765789325196799,0.0003674365589114027
0.076,0.019797307852140927,-6.023717355013184e-05,0.29963882767423605,-0.00046624589040175374,-0.30640878328331866,-2.099666998169484e-06,1.3437695958141476,-0.0024122131418535817,3.5752653664203398,-0.006181733154878874,1.8582205394994133,-0.0008387037529003964,-1.0451311460388377,4.131450585954621,0.0,0.0,-7.298816920096,0.0,-98.6793427248262,-0.0024443336003297966,13.193872443130662,0.0003747230387963605
0.077,0.02110581048546705,-6.266585523622694e-05,0.30304398469419136,-0.0004721260338102459,-0.3040622047198088,-2.9662724310217064e-06,1.3085026333261236,-0.002428681686095102,3.4051570199552823,-0.005880143408492164,2.346578563509818,-0.0008666054328522222,-1.0389400857226652,8.246596223926781,0.0,0.0,-14.19234553674218,0.0,-100.6230117826136,-0.0024649906986474804,10.543644803634626,0.0003777728260422669
0.078,0.022360396311497912,-6.510886087055427e-05,0.30627525680541673,-0.0004778571089853025,-0.3013986196509768,-3.845951410242548e-06,1.2545858260308602,-0.0024430056343273314,3.231272111225375,-0.005731075175056578,2.663585068832029,-0.0008796789792208415,-1.0286488035347212,12.32919631411449,0.0,0.0,-23.773050531623753,0.0,-103.03241328031574,-0.0024387424013928394,6.844167963751835,0.00037357330991739056
0.079,0.023538339232269886,-6.756465876680359e-05,0.30932805641155087,-0.0004836298962747312,-0.2986356381009702,-4.7199695059758535e-06,1.177942920771975,-0.002455797896249321,3.0527996061341116,-0.005772787289428693,2.7629815500066077,-0.000874018095733306,-1.014297914464162,16.363138699124452,0.0,0.0,-36.01356167941376,0.0,-105.72363116929004,-0.002348082094357378,2.1459705918095224,0.0003594397967431409
0.08,0.024612978985935195,-7.003236921717898e-05,0.31219736521413227,-0.0004896699295490815,-0.29603402237724796,-5.5658067278855455e-06,1.074639753665311,-0.0024677104503753864,2.8693088025813944,-0.006040033274350199,2.6016157237222437,-0.0008458372219096924,-0.995944054913852,20.332503251295893,0.0,0.0,-50.86608827856417,0.0,-108.4550348783086,-0.0021802035037329433,-3.483884033573257,0.00033341195530290854
0.081,0.025553830717665985,-7.25117595887152e-05,0.31487826000970703,-0.0004962339769230975,-0.2938940700651526,-6.357387086666992e-06,0.9408517317307901,-0.0024793903715362186,2.680894795574773,-0.006564047374016045,2.1399523120953283,-0.0007915803587814469,-0.9736596591823546,24.221624702171674,0.0,0.0,-68.2741117733212,0.0,-110.92796518097853,-0.0019299235370627034,-9.967304822999925,0.0002947020797248042
0.082,0.026326634871285105,-7.500319534376016e-05,0.3173665973972743,-0.0005036069263279609,-0.2925517504369281,-7.065476900203903e-06,0.7728041536191198,-0.0024914357550449673,2.4883373875672814,-0.00737294940486341,1.3423196282244814,-0.0007080898135369107,-0.9475326735988511,28.01515446615566,0.0,0.0,-88.18625608565534,0.0,-112.78996070652325,-0.0016026467308148252,-17.220876898670053,0.0002441492368732081
0.083,0.026893320607512886,-7.750754999012032e-05,0.31965986550509845,-0.0005120994575473629,-0.2923748347754874,-7.658318144080572e-06,0.5666857362277806,-0.0025043546463601536,2.29326810782418,-0.008492531219401965,0.17691566144066484,-0.0005928412438766688,-0.9176662094391541,31.698121214368406,0.0,0.0,-110.57185539811518,0.0,-113.64138608484537,-0.0012170574348046568,-25.16105399004775,0.00018463069638717755
0.084,0.02721185859402882,-8.002608100074696e-05,0.32175820378941555,-0.0005220467986091353,-0.2937592026686998,-8.102568814766926e-06,0.31853798651593446,-0.0025185310106266394,2.098338284317108,-0.009947341061772428,-1.3843678932123935,-0.0004442506706863539,-0.8841781359926134,35.25598995964207,0.0,0.0,-135.43773429787768,0.0,-113.04632855367278,-0.0008072645532695307,-33.708089013410415,0.00012138575796856227
0.085,0.027760568050517666,-8.256028385637613e-05,0.32366558363197717,-0.0005288304149670748,-0.29160794687805386,-8.869563647613322e-06,0.5487094564888442,-0.002534202855629173,1.9073798425616189,-0.006783616357939537,2.151255790645974,-0.0007669948328463949,-0.8472006153858767,38.67471941947473,0.0,0.0,127.24922955328269,0.0,-110.54868290710763,-0.00042425821291470345,76.33406462498047,6.221483445647841e-05
0.08600000000000001,0.0279790381543718,-8.510187757749854e-05,0.32536228567154685,-0.0005375630991049606,-0.29155893798043575,-9.438179333935289e-06,0.21847010385413562,-0.0025415937211224174,1.6967020395696837,-0.00873268413788579,0.04900889761812621,-0.0005686156863219672,-0.8068795809993557,41.94081743055738,0.0,0.0,-178.79363176349065,0.0,-122.35348882820779,-0.0009589504882620122,-45.38747952234093,0.00014399579734178397
0.08700000000000001,0.027817837498089176,-8.765295133689618e-05,0.326857574829926,-0.0005485694565232711,-0.2940015189261647,-9.775718917284611e-06,-0.16120065628262492,-0.0025510737593976277,1.4952891583791434,-0.01100635741831046,-2.4425809457289613,-0.00033753958334932195,-0.7633741615348472,45.041394196178445,0.0,0.0,-208.35257445174096,0.0,-116.58321250793787,-0.0004464519181372077,-53.79338875534609,6.446602016840991e-05
0.088,0.02809196408184851,-9.021521892446288e-05,0.3281674063871941,-0.0005553603196774895,-0.2917602178587048,-1.0546880596992395e-05,0.27412658375933435,-0.00256226758756671,1.3098315572681292,-0.006790863154218426,2.2413010674598928,-0.0007711616797077842,-0.716856053007241,47.96421315636285,0.0,0.0,240.2882652844277,0.0,-107.96793533384339,-0.00012193823263087456,101.12494514156928,-1.2711220051670591e-05
0.089,0.02791048292898869,-9.278078389731403e-05,0.3292635503622597,-0.0005646390503326635,-0.29224185255064056,-1.106556386721561e-05,-0.18148115285982275,-0.0025655649728511553,1.0961439750655608,-0.009278730655174003,-0.48163469193575503,-0.0005186832702232145,-0.6675088411387936,50.69773927998371,0.0,0.0,-248.7672038582322,0.0,-123.70465314543672,-0.0005910741870140836,-58.78814356542401,8.68058093634931e-05
0.09,0.02823286952176852,-9.535113747686851e-05,0.33016754742357496,-0.0005695493073203812,-0.2878702512946081,-1.2028915074844599e-05,0.3223865927798342,-0.0025703535795544826,0.9039970613152747,-0.0049102569877176325,4.371601256032472,-0.0009633512076289896,-0.6155272768301524,53.231184588260426,0.0,0.0,279.9098321045444,0.0,-111.50048086726086,-0.00017362838438363297,104.781294258995,-1.9921005348602262e-05
0.091,0.028037925344486847,-9.792009204633643e-05,0.3308533115237638,-0.0005769034204311079,-0.2861663203353125,-1.2749273097579542e-05,-0.19494417728167396,-0.002568954569467909,0.6857641001888094,-0.0073541131107267114,1.7039309592956262,-0.000720358022734943,-0.5611165075675272,55.55455072998221,0.0,0.0,-282.3583124962823,0.0,-126.66388576378532,-0.0007325343582909394,-57.59496283188922,0.00010875428212477913
0.092,0.02732275915735938,-0.0001004886299633742,0.3313470384942406,-0.0005866905567068889,-0.28714532226159933,-1.3224267991424415e-05,-0.7151661871274646,-0.002568537917037765,0.49372697047680547,-0.00978713627578097,-0.979001926286855,-0.0004749948938448727,-0.50449126779928,57.65866844043279,0.0,0.0,-285.50526458410434,0.0,-111.21714540571583,-0.00025679107570455317,-57.924482425546245,-3.166198776889625e-05
0.093,0.027216741423940545,-0.00010305664458791635,0.331679742302382,-0.0005925137873366783,-0.2837183580330232,-1.4103274946628934e-05,-0.10601773341883736,-0.0025680146245421515,0.33270380814144984,-0.0058232306297894415,3.4269642285761086,-0.0008790069552045197,-0.4458750314771666,59.5352337282889,0.0,0.0,338.12822095747833,0.0,-94.635789525726,-0.00017699398695322598,95.12474584065062,-1.32365823430084e-06
0.094,0.02650538584748977,-0.00010562093542666874,0.3318316895400294,-0.0006004255433135574,-0.28259166717015527,-1.477512458719273e-05,-0.7113555764507773,-0.0025642908387523843,0.15194723764737383,-0.007911755976879011,1.1266908628679428,-0.0006718496405637965,-0.38549913010673753,61.17684064768055,0.0,0.0,-332.6027319490268,0.0,-104.96550672769636,-0.00030576795839109714,-49.66286879895259,-4.1033254259475316e-05
0.095,0.026433335880872277,-0.0001081810739244718,0.33183720538495975,-0.00060509847038037,-0.2778655283980343,-1.5775713374270538e-05,-0.07204996661749319,-0.0025601384978030596,0.00551584493035473,-0.004672927066812585,4.726138772120944,-0.0010005887870778076,-0.32360183978757795,62.577010526075725,0.0,0.0,355.1433904888616,0.0,-85.74308626976234,-0.0001838058021774843,77.71202857214385,-5.697592978497701e-06
0.096,0.025729721372645974,-0.00011073542900250533,0.331688467276713,-0.0006112367044204182,-0.274748880197641,-1.6634348866210633e-05,-0.7036145082263019,-0.0025543550780335305,-0.1487381082467886,-0.006138234040048214,3.116648200393299,-0.0008586354919400942,-0.2604274408463938,63.7302175326412,0.0,0.0,-347.7526988447879,0.0,-90.33096860014484,-0.0003253383691877503,-34.74887814209361,4.5002510676559214e-05
0.097,0.025677847700074426,-0.0001132835318867233,0.331421006604974,-0.0006151389158313681,-0.26914380555615786,-1.772278498459138e-05,-0.05187367257154796,-0.002548102884217972,-0.2674606717389733,-0.003902211410949949,5.60507464148311,-0.0010884361183807493,-0.1962252537741702,64.6319104861722,0.0,0.0,361.6281416543261,0.0,-69.66234288636413,-0.00023284794832874962,53.72509113953509,-1.407012219596086e-05
0.098,0.024984918307292797,-0.00011582466236744531,0.33103876301490687,-0.0006197616076201297,-0.2643242171516973,-1.8748605177954462e-05,-0.6929293927816293,-0.0025411304807220186,-0.38224359006712505,-0.004622691788761605,4.819588404460556,-0.0010258201933630805,-0.13124865527209104,65.27853081652547,0.0,0.0,-353.8903153828395,0.0,-68.54378600683359,-0.00031619828292446756,-16.958636381487594,4.450719602961694e-05
0.099,0.024940965083083598,-0.00011835870319761242,0.3305780883521027,-0.0006233183118885481,-0.25831008086873236,-1.9891359009900096e-05,-0.043953224209199115,-0.002534040830167118,-0.46067466280420033,-0.003556704268418399,6.014136282964914,-0.001142753831945634,-0.06575407828945899,65.66752660866987,0.0,0.0,359.28235268097023,0.0,-46.76207608197198,-0.00031013639771167384,25.790271682957655,-2.5473783195762447e-05
0.1,0.024259171653356473,-0.00012088508373068727,0.3300511555532187,-0.0006268089863113023,-0.25221232523434883,-2.1053320072508746e-05,-0.6817934297271264,-0.0025263805330748407,-0.526932798883977,-0.003490674422754235,6.097755634383526,-0.0011619610626086513,-2.5648942582957195e-16,65.79736267392904,0.0,0.0,-352.87197272485395,0.0,-41.73951016210365,-0.00028327955591263005,1.8053407633512406,4.024545724876301e-05
0.101,0.024210955852547664,-0.00012340430721092212,0.3294949917835585,-0.0006304483644546967,-0.2462620388531378,-2.2215511683335845e-05,-0.04821580080881038,-0.0025192234802348494,-0.5561637696601736,-0.0036393781433943623,5.950286381211025,-0.0011621916108270989,0.06575407828945941,65.66752660866987,0.0,0.0,349.9453530997171,0.0,-19.118973261413544,-0.0003990940610274251,-3.18385879020686,-3.804126851507524e-05
0.10200000000000001,0.02478800139628045,-0.0001259154135622795,0.3289245662920216,-0.0006347449846917429,-0.24103280447783917,-2.332324475462561e-05,0.5770455437327852,-0.0025111063513573754,-0.5704254915369038,-0.00429662023704618,5.229234375298633,-0.0011077330712897645,0.13124865527209054,65.27853081652549,0.0,0.0,345.2619522998715,0.0,-12.989333796763862,-0.00023682265061367606,-15.567502324905027,3.3707449182144565e-05
0.10300000000000001,0.025040190254930175,-0.00012841723562901348,0.32835286486650433,-0.0006385642466980009,-0.23527195180239263,-2.4488198368070803e-05,0.25218885864972607,-0.0025018220667339967,-0.5717014255172952,-0.003819262006258037,5.760852675446532,-0.0011649536134451927,0.1962252537741706,64.6319104861722,0.0,0.0,-180.00032418398405,0.0,-7.64237136553448,-0.00015123377925427208,11.477631480606316,2.2698218606454138e-05
0.10400000000000001,0.025855596136905648,-0.000130910345617163,0.3278123225605184,-0.0006440567876254386,-0.23136080580571172,-2.549465875241934e-05,0.8154058819754744,-0.0024931099881495143,-0.5405423059859393,-0.0054925409274377175,3.9111459966808972,-0.0010064603843485363,0.2604274408463942,63.73021753264119,0.0,0.0,310.9023050880679,0.0,11.152109925668407,-0.00019526929828544965,-39.935140537768625,2.9998789160986497e-05
0.105,0.02608141191599071,-0.00013339337519695013,0.32731006327106676,-0.0006476661597280361,-0.2253631817699155,-2.669615122475396e-05,0.225815779085061,-0.0024830295797871353,-0.5022592894516109,-0.0036093721025975594,5.9976240357962265,-0.0012014924723346206,0.32360183978757745,62.57701052607573,0.0,0.0,-325.9684989345461,0.0,14.12652086567928,-7.938717799533209e-05,45.04703079293907,9.678837873897079e-06
0.106,0.026851405874418494,-0.00013586799127545359,0.3268868431362375,-0.0006538182484144554,-0.2221758939871095,-2.7652111472926903e-05,0.7699939584277848,-0.002474616078503464,-0.42322013482924914,-0.006152088686419307,3.187287782805992,-0.0009559602481729412,0.38549913010673703,61.176840647680564,0.0,0.0,300.4769518864388,0.0,37.6719486622401,-0.0002469793866137078,-60.67511918720753,3.7639235470751184e-05
0.107,0.027330916030510254,-0.0001383328762528924,0.32654231372323883,-0.0006592858154789385,-0.21823097964500734,-2.8679606139368547e-05,0.4795101560917616,-0.002464884977438804,-0.3445294129986887,-0.005467567064483163,3.944914342102157,-0.0010274946664416444,0.4458750314771661,59.535233728288915,0.0,0.0,-160.1881021265893,0.0,36.86722355824533,-5.9740591386654525e-05,16.357146397626128,6.9707822975764354e-06
0.108,0.028239124155273448,-0.0001407889378416484,0.3263035929735256,-0.0006676972798143334,-0.21754782209224277,-2.9412552503639162e-05,0.9082081247631939,-0.0024560615887560112,-0.2387207497131887,-0.008411464335394823,0.6831575527645866,-0.0007329463642706147,0.5044912677992796,57.658668440432805,0.0,0.0,237.49288433626643,0.0,52.1698685958209,-0.00010607852538155512,-70.42128227334493,1.5985897235786126e-05
0.109,0.02865144550068493,-0.00014323579594404897,0.326163587142311,-0.0006735884631521784,-0.21407278387297815,-3.0400669451804088e-05,0.4123213454114809,-0.002446858102400585,-0.1400058312146486,-0.005891183337845031,3.4750382192646203,-0.0009881169481649262,0.5611165075675266,55.55455072998223,0.0,0.0,-273.14468088200533,0.0,48.94919160930932,3.1607988987726235e-06,60.276663203616515,7.350571824867808e-07
0.11,0.02947458779035685,-0.00014567483247730607,0.3261590307866566,-0.0006827839503468141,-0.2142575221120257,-3.105632529226428e-05,0.8231422896719205,-0.002439036533257108,-0.004556355654374761,-0.00919548719463565,-0.18473823904755848,-0.0006556558404601915,0.615527276830152,53.23118458826044,0.0,0.0,228.06741212674956,0.0,68.81011341466284,-0.00011927355363935164,-79.01452120955253,1.8335621571140796e-05
0.111,0.029873034195947702,-0.0001481066079211783,0.32627808393533175,-0.0006895672973042762,-0.21176889596513013,-3.1956802414644194e-05,0.39844640559085354,-0.002431775443872234,0.11905314867514305,-0.006783346957462135,2.4886261468955855,-0.0009004771223799138,0.6675088411387932,50.69773927998373,0.0,0.0,-233.7029000585878,0.0,63.139275541457984,5.139514114513191e-06,57.71789838046976,6.330139875837792e-07
0.112,0.030577241199876815,-0.00015053208487494208,0.3265505653763038,-0.0006994842139645419,-0.21275014670225165,-3.254008315163189e-05,0.7042070039291113,-0.0024254769537637613,0.2724814409720374,-0.009916916660265673,-0.9812507371215071,-0.0005832807369876966,0.7168560530072406,47.964213156362874,0.0,0.0,170.38971559309923,0.0,78.99376947054388,-0.00010909105367332916,-74.91459216970385,1.680382274868138e-05
0.113,0.03093580898251105,-0.0001529530091333942,0.3269651418651258,-0.0007073309811029999,-0.2114354163199127,-3.333476670305791e-05,0.35856778263423494,-0.002420924258452122,0.41457648882204257,-0.00784676713845793,1.3147303823389622,-0.0007946835514260223,0.7633741615348468,45.04139419617848,0.0,0.0,-190.1408797115161,0.0,73.65808199076945,1.6424972673400125e-06,49.57019905851172,3.9029125269787227e-07
0.114,0.03142722383728174,-0.00015536997975537127,0.3275434305090509,-0.0007174298452231639,-0.21261281940837554,-3.3900522562239774e-05,0.4914148547706885,-0.002416970621977076,0.5782886439250791,-0.010098864120164032,-1.1774030884628295,-0.000565755859181864,0.806879580999356,41.94081743055736,0.0,0.0,74.90434096131509,0.0,84.96801788664077,-9.448715886301724e-05,-53.8051259791386,1.459383059147658e-05
0.115,0.031656429130188374,-0.00015778549211277606,0.32827950099408015,-0.0007259934431905181,-0.21208580807830657,-3.4623855161882595e-05,0.22920529290662928,-0.002415512357404798,0.7360704850292632,-0.00856359796735417,0.5270113300689667,-0.0007233325996428175,0.8472006153858763,38.674719419474755,0.0,0.0,-144.2336751742544,0.0,82.27055878985684,-1.2240171411284499e-05,36.79828249272022,1.270402228952313e-06
0.116,0.03184892499335414,-0.00016020003748319167,0.329186244726118,-0.0007353763952611292,-0.21246035302314267,-3.526358167889474e-05,0.19249586316576994,-0.0024145453704156146,0.9067437320378479,-0.009382952070611043,-0.3745449448361041,-0.0006397265170121418,0.8841781359926136,35.25598995964205,0.0,0.0,-18.943852741191325,0.0,89.01214057900496,-0.00011664252498725052,-19.46458718156541,1.7665754674685375e-05
0.117,0.0318601694405234,-0.0001626157711398686,0.33026379433573716,-0.0007438691743131633,-0.21184177066728738,-3.5993932205621505e-05,0.01124444716925957,-0.0024157336566769366,1.0775496096191333,-0.008492779052034065,0.6185823558552858,-0.0007303505267267695,0.9176662094391543,31.698121214368385,0.0,0.0,-99.27591093272285,0.0,89.19258384634001,-9.273005280279004e-05,21.44160393817517,1.3887478175972765e-05
0.11800000000000001,0.0320091581439402,-0.00016503336781608922,0.33151719590350653,-0.0007543478951198939,-0.21340889518403489,-3.652225868664967e-05,0.1489887034167997,-0.0024175966762206257,1.253401567769358,-0.010478720806730683,-1.5671245167475063,-0.0005283264810281672,0.9475326735988512,28.01515446615564,0.0,0.0,77.68182687171233,0.0,91.9386418060537,-0.0002571419907595305,-47.18938000118995,3.514378980421412e-05
0.11900000000000001,0.032045262930231105,-0.0001674566376285452,0.332941760218426,-0.0007644946524710719,-0.2145993641729067,-3.708695925898519e-05,0.036104786290903745,-0.002423269812455983,1.424564314919444,-0.010146757351177952,-1.190468988871812,-0.0005647005723355171,0.9736596591823549,24.221624702171653,0.0,0.0,-62.362069247556896,0.0,89.48026790691014,-9.274034463208155e-05,8.13198718448863,1.3422989378758609e-05
0.12,0.03199856316666299,-0.0001698868606120663,0.3345394820733717,-0.0007745925891954642,-0.21572182380116853,-3.7658374789721066e-05,-0.04669976356811885,-0.0024302229835210898,1.5977218549457097,-0.010097936724392307,-1.1224596282618264,-0.0005714155307358795,0.9959440549138519,20.332503251295925,0.0,0.0,-45.573478129153045,0.0,90.47941182683498,-0.00018509507933763152,1.4683209638609938,2.4977917623455304e-05
0.121,0.03189574808636447,-0.00017232566432841772,0.33631089678085035,-0.0007848844755297522,-0.217040286775104,-3.821353816915486e-05,-0.10281508029851792,-0.0024388037163514125,1.77141470747866,-0.010291886334288009,-1.3184629739354747,-0.0005551633794337944,1.014297914464162,16.363138699124484,0.0,0.0,-30.86228905479266,0.0,90.72398341653786,-0.00027015296281558644,-4.231709498197944,-3.488635232709066e-05
0.122,0.031759819496996036,-0.00017477507639369807,0.33825587936963053,-0.0007955720610596306,-0.2187741314501835,-3.873277340411941e-05,-0.1359285893684383,-0.002449412065280361,1.9449825887801957,-0.010687585529878401,-1.7338446750795025,-0.0005192352349645488,1.028648803534721,12.32919631411452,0.0,0.0,-18.435121661074152,0.0,90.61043428912598,-0.0003314609955864403,-8.968084992872624,-4.153497019324178e-05
0.123,0.03160738264284081,-0.00017723756235476937,0.3403742180823465,-0.0008068075191043009,-0.22108920123200387,-3.9201876885593e-05,-0.15243685415522165,-0.0024624859610712993,2.1183387127160147,-0.011235458044670263,-2.3150697818203527,-0.0004691034814735911,1.038940085722665,8.246596223926815,0.0,0.0,-9.816562391075124,0.0,90.43999954228573,-0.00036341254912203704,-12.548641722417015,-4.451992960467848e-05
0.124,0.031449848112448546,-0.0001797160275322865,0.3426660073141293,-0.0008186947100616219,-0.224099040690772,-3.961211572632602e-05,-0.15753453039226228,-0.0024784651775171308,2.2917892317827686,-0.011887190957321091,-3.0098394587681208,-0.00041023884073302145,1.0451311460388377,4.131450585954653,0.0,0.0,-4.341338038694703,0.0,90.43011658855733,-0.0003697425949102677,-15.000067375911883,-4.441388661637622e-05
0.125,0.031295403653813954,-0.00018221379257335105,0.34513186864659046,-0.0008312928758546949,-0.22786857994509102,-3.995998395929074e-05,-0.1544444586345949,-0.0024977650410645622,2.4658613324611576,-0.012598165793072977,-3.769539254319024,-0.00034786823296472047,1.0471975511965976,2.0144632397741184e-14,0.0,0.0,-0.9001681071476494,0.0,90.71040469174976,-0.00035808315992769905,-16.40190773811218,-4.220192765924085e-05
0.126,0.031147884997857464,-0.00018473454760863559,0.347773073957235,-0.0008446164381449187,-0.23241346684608222,-4.024727979098304e-05,-0.14751865595648925,-0.002520755035284547,2.6412053106445192,-0.013323562290223832,-4.544886900991202,-0.00028729583169230034,1.0451311460388377,-4.131450585954613,0.0,0.0,-0.08475492134869285,0.0,91.35859509877571,-0.00033662756056282575,-16.739744665253173,-3.892893051321531e-05
0.127,0.031006907815849274,-0.00018728227831946197,0.3505918845581309,-0.0008586392613411614,-0.2377043495388691,-4.0480595215168865e-05,-0.1409771820081889,-0.002547730710826386,2.818810600895895,-0.014022823196242689,-5.290882692786876,-0.00023331542418582072,1.0389400857226652,-8.246596223926774,0.0,0.0,-1.7712595689522603,0.0,92.56591227738788,-0.00031377770061153797,-16.10603858952108,-3.5594912949953224e-05
0.128,0.030867947577412767,-0.0001898611784787411,0.35359164537045495,-0.0008732980154014715,-0.243670252142005,-4.067076303526791e-05,-0.1389602384365067,-0.0025789001592791483,2.9997608123240833,-0.014658754060310128,-5.965902603135908,-0.0001901678200990499,1.028648803534721,-12.329196314114538,0.0,0.0,-5.854650768022229,0.0,94.38062250372401,-0.00029660999005421117,-14.573670373849843,-3.3006486808415514e-05
0.129,0.030722490515284112,-0.00019247554692464818,0.356776653318567,-0.0008884960277891639,-0.25020257204390006,-4.083213485441027e-05,-0.14545706212865545,-0.002614368445907072,3.185007948112026,-0.015198012387692297,-6.532319901895082,-0.0001613718191423579,1.014297914464162,-16.363138699124445,0.0,0.0,-12.180535784475568,0.0,96.71856701303165,-0.0002910976365788323,-12.22894158426685,-3.1812000232893606e-05
0.13,0.030558231798230317,-0.00019512966929464428,0.36015193931802064,-0.0009041079330606063,-0.25715999266990924,-4.098170177052555e-05,-0.16425871705379508,-0.0026541223699961093,3.375285999453611,-0.015611905271442413,-6.9574206260091875,-0.00014956691611527566,0.995944054913852,-20.332503251295886,0.0,0.0,-20.55953819006051,0.0,99.44233125900125,-0.0003028402957969225,-9.177918785512228,-3.259380386568172e-05
0.131,0.03035930451109711,-0.00019782768760474279,0.3637229656825908,-0.0009199850489709538,-0.2643741485739835,-4.113812777596186e-05,-0.19892728713320817,-0.002698018310098508,3.5710263645702063,-0.01587711591034748,-7.21415590407428,-0.0001564260054363152,0.9736596591823551,-24.221624702171614,0.0,0.0,-30.77822667573577,0.0,102.36593158758427,-0.0003383277646427696,-5.542911217962991,-3.60181505258326e-05
0.132,0.030106526988194538,-0.0002005734613091872,0.3674952312052487,-0.0009359614340631356,-0.27165589277901675,-4.132077086252672e-05,-0.25277752290257094,-0.0027457737044444255,3.7722655226578836,-0.015976385092181737,-7.281744205033242,-0.00018264308656486117,0.9475326735988507,-28.015154466155707,0.0,0.0,-42.6079717665856,0.0,105.25522677849052,-0.00040642561683732284,-1.4592306604739038,-4.3004352653313415e-05
0.133,0.029777657573824043,-0.0002033704243622568,0.37147377953301536,-0.0009518605803992633,-0.2788020206546907,-4.15487639425693e-05,-0.3288694143704951,-0.002796963053069583,3.9785483277666893,-0.015899146336127712,-7.1461278756739235,-0.00022799308004257883,0.9176662094391541,-31.6981212143684,0.0,0.0,-55.813337492658896,0.0,107.83054574672661,-0.0005197407620368502,2.927954473454329,-5.4871075766665535e-05
0.134,0.02934764838981543,-0.0002062214442167979,0.37566261558383746,-0.0009675026846320913,-0.285602319954465,-4.184021566734796e-05,-0.43000918400861404,-0.0028510198545411178,4.188836050822095,-0.015642104232828014,-6.800299299774326,-0.000291451724778655,0.8841781359926135,-35.255989959642065,0.0,0.0,-70.15979213277215,0.0,109.77405808914516,-0.0006955416895095762,7.466434003162874,-7.342003283576086e-05
0.135,0.028788961392623866,-0.00020912869069833682,0.38006404684171186,-0.0009827125171628852,-0.29184694703240743,-4.221156198863758e-05,-0.5586869971915644,-0.0029072464815389273,4.401431257874389,-0.015209832530793835,-6.244627077942436,-0.0003713463212896199,0.8472006153858768,-38.67471941947473,0.0,0.0,-85.38282893865349,0.0,110.74292130772352,-0.0009559561917176057,11.996955534069953,-0.0001009236279106473
0.136,0.02807171268316914,-0.00021209352554319108,0.38467798008759957,-0.0009973274259132323,-0.29733365696028324,-4.267712143236207e-05,-0.7172487094547233,-0.002964834844854253,4.613933245887733,-0.014614908750347115,-5.486709927875806,-0.00046555944372449074,0.8068795809993553,-41.940817430557416,0.0,0.0,-101.32312764822417,0.0,110.38879249022779,-0.0013271862556770582,16.363420966155065,-0.00013999006807312607
0.137,0.02716811950209926,-0.0002151164244825889,0.3895012148142277,-0.001011215911535923,-0.30188655134137754,-4.324776880772299e-05,-0.9035931810698841,-0.0030228989393978165,4.823234726628155,-0.013888485622690641,-4.5528943810942835,-0.0005706473753609219,0.7633741615348465,-45.04139419617849,0.0,0.0,-115.4585101540611,0.0,108.38061510414369,-0.0018379164901640645,20.161065294162405,-0.00019331313219389678
0.138,0.02608971543588938,-0.00021819699289305717,0.394526875609604,-0.0010244476169231746,-0.3055430297229382,-4.3914419017851077e-05,-1.0784040662098802,-0.0030805684104682845,5.025660795376242,-0.013231705387251734,-3.656478381560645,-0.000666650210128084,0.7168560530072404,-47.96421315636289,0.0,0.0,-107.20117204272726,0.0,104.48701981459499,-0.0025094516880971654,19.353610228124616,-0.0002627699990930508
0.139,0.02493804787174599,-0.00022133481879315408,0.39974538384153113,-0.001037696715171387,-0.3090059676133511,-4.460813088343802e-05,-1.1516675641433902,-0.0031378259000969114,5.218508231927151,-0.013249098248212323,-3.4629378904129227,-0.000693711865586947,0.667508841138793,-50.69773927998374,0.0,0.0,-49.04488643943298,0.0,99.29042208526424,-0.0032509035053922388,4.178538785352932,-0.00033970648144371964
0.14,0.023946464363325627,-0.00022453249849980285,0.40514941133354365,-0.00105268647346753,-0.31415913765854486,-4.515564047543953e-05,-0.9915835084203639,-0.0031976797066487622,5.404027492012537,-0.014989758296143187,-5.153170045193782,-0.0005475095920015043,0.6155272768301524,-53.23118458826042,0.0,0.0,80.18279905966929,0.0,95.21874250091112,-0.0036732525570346234,-36.49208520045909,-0.0003845832811424146
0.14100000000000001,0.0227872114225048,-0.0002278014993427629,0.4107421679002309,-0.0010672055018145327,-0.3185821164671698,-4.5787602073318576e-05,-1.1592529408208259,-0.003269000842960065,5.59275656668725,-0.01451902834700275,-4.422978808624938,-0.0006319615978790507,0.5611165075675256,-55.55455072998227,0.0,0.0,-106.44467616648538,0.0,96.38207398391312,-0.00311233812357154,15.764820450337647,-0.00032716409357549914
0.14200000000000002,0.021658313713380412,-0.00023114207014892618,0.4165080170940949,-0.0010824097197672156,-0.3235126414509956,-4.6386405583297036e-05,-1.128897709124389,-0.003340570806163263,5.7658491938640015,-0.015204217952682817,-4.930524983825829,-0.0005988035099784578,0.5044912677992793,-57.65866844043281,0.0,0.0,4.80627593754858,0.0,87.7328767642262,-0.003832856296952497,-10.957911828688715,-0.00040038934785793545
