time,pos_x,pos_y,pos_z,roll,pitch,yaw,vel_x,vel_y,vel_z,p,q,r,flap_angle,flap_rate,elevator,rudder,force_x,force_y,force_z,moment_x,moment_y,moment_z
0.0,1.963581363071123e-06,0.0,-1.3587386479712009e-05,9.85632693565408e-08,0.000109237371929058,-9.996934223643258e-09,0.001963581363071123,0.0,-0.013587386479712008,9.85632693565408e-05,0.109237371929058,-9.996934223643258e-06,0.0,26.31894506957162,0.0,0.0,1.085860493778331,0.0,-12.938754723280741,0.0,2.3584332901602445,0.0
0.001,5.879749121060691e-06,-2.2864984666369584e-12,-3.927040264488459e-05,2.888472497154323e-07,0.00032013047092591834,-2.9304305466152152e-08,0.003916167757989569,-2.286498466636958e-09,-0.02568301616517258,0.00019028398035889153,0.21089309899686032,-1.9307371242508892e-05,0.026316174409599786,26.310633264666407,0.0,0.0,1.0783668808290756,0.0,-12.113931800238982,-2.1864823782783686e-08,2.19474568657231,-5.089417041361011e-08
0.002,1.1741069622658665e-05,-1.2218082156979844e-11,-7.552761960998993e-05,5.638909411100411e-07,0.0006249698557132701,-5.723673667301501e-08,0.005861320501597974,-9.931583690342885e-09,-0.03625721696510534,0.0002750436913946088,0.30483938478735173,-2.7932431206862856e-05,0.05261572695939737,26.285703099864907,0.0,0.0,1.0709375287579954,4.3693488964998724e-12,-11.272919483073213,-8.366945544334766e-08,2.028298960225768,-1.9500673321373988e-07
0.003,1.9547650408490955e-05,-3.7490160439901144e-11,-0.00012081299267766699,9.166338868597316e-07,0.001015938743512378,-9.31091547214774e-08,0.00780658078583229,-2.5272078282921304e-08,-0.045285373067677055,0.00035274294574969055,0.3909688877991079,-3.5872418048462395e-05,0.07888204628831348,26.244170321593543,0.0,0.0,1.0662264165571655,2.6820274416065525e-11,-10.418487344287076,-1.801598172885663e-07,1.8595347324300266,-4.2041561819409457e-07
0.004,2.930789506206866e-05,-8.744878016012746e-11,-0.00017356072640862359,1.3399320817769923e-06,0.0014851300785901128,-1.3623580778988648e-07,0.009760244653577704,-4.995861972022631e-08,-0.052747733730956606,0.00042329819491726073,0.4691913350777347,-4.3126653068409064e-05,0.10509854202608344,26.18606116284526,0.0,0.0,1.0650737631593474,8.537839897844511e-11,-9.553300475180498,-3.062527777883853e-07,1.6888215128668504,-7.153964640096641e-07
0.005,4.103619327099492e-05,-1.724598587219206e-10,-0.00023218993162452722,1.8265752331458149e-06,0.0020245651317527826,-1.8592958642001434e-07,0.011728298208926262,-8.501107856179313e-08,-0.058629205215903625,0.00048664315136882257,0.5394350531626698,-4.969377863012785e-05,0.13124865527209065,26.111412326610196,0.0,0.0,1.0665908172262923,1.9700958611060975e-10,-8.679910169027528,-4.571071899949962e-07,1.5165608643376574,-1.0685686487773228e-06
0.006,5.475081951770442e-05,-3.033394765181605e-10,-0.0002951092533901907,2.3693053194335486e-06,0.0026262135720884713,-2.415016601153106e-07,0.013714626246709494,-1.308796177962399e-07,-0.06291932176566349,0.0005427300862877337,0.6016484403356885,-5.557207369529625e-05,0.15731586905432304,26.020270962693303,0.0,0.0,1.0699667516923856,3.736437959361277e-10,-7.800851974317585,-6.281065753268567e-07,1.3431861354681067,-1.468962592064536e-06
0.007,7.047252306370869e-05,-4.908500020709683e-10,-0.0003607214731598117,2.9608361152167036e-06,0.0032820146462506656,-3.0226141185686355e-07,0.015721703546004277,-1.875105255528078e-07,-0.06561221976962102,0.0005915307957831551,0.6558010741621945,-6.0759751741552964e-05,0.18328371876184676,25.91269463793349,0.0,0.0,1.0747327506614406,6.195483040520122e-10,-6.918646903428971,-8.148574692883602e-07,1.1691545866845208,-1.9060871143380707e-06
0.008,8.822240746774844e-05,-7.452658637438751e-10,-0.00042742797259456795,3.5938738587280158e-06,0.0039838996637539675,-3.675167023297931e-07,0.01774988440403974,-2.5441586167290684e-07,-0.06670649943475622,0.0006330377435113123,0.7018850175033015,-6.525529047292957e-05,0.20913580254420727,25.788751299843213,0.0,0.0,1.0799845507348018,9.29968568378603e-10,-6.035739038711378,-1.0132012682108488e-06,0.9949516751954202,-2.3699914406829915e-06
0.009000000000000001,0.00010802045781616037,-1.0760118399736276e-09,-0.0004936331216392905,4.261138580663291e-06,0.00472381525629977,-4.365744274482097e-07,0.019798050348411943,-3.307459762297526e-07,-0.06620514904472248,0.0006672647219352747,0.7399155925458025,-6.905772511841659e-05,0.23485579167118953,25.64851923369133,0.0,0.0,1.0851318258339147,1.2909223925790423e-09,-5.154529666644834,-1.2192138076405127e-06,0.8210795695053114,-2.8513485444007406e-06
0.01,0.00012988457511610595,-1.4913756597777512e-09,-0.0005577485607977209,4.955385803568931e-06,0.005493747091088316,-5.087413488987595e-07,0.021864117299945564,-4.153638198041236e-07,-0.06411543915843043,0.0006942472229056405,0.7699318347885467,-7.216692145054977e-05,0.26042744084639413,25.492087013056477,0.0,0.0,1.0898193715854092,1.6800333852649208e-09,-4.2773607399975155,-1.4292239562795222e-06,0.64805023967815,-3.3415179934321342e-06
0.011,0.00015382899267567458,-1.998295638111097e-09,-0.0006181972902191517,5.669428813145262e-06,0.006285744262942348,-5.833252241910793e-07,0.023944417559568613,-5.069199783333458e-07,-0.06044872942143076,0.0007140430095763303,0.7919971718540316,-7.458387529231981e-05,0.28583459846811454,25.319553443882082,0.0,0.0,1.0933044217777868,2.0683034880350838e-09,-3.4064667857460735,-1.6398351670983576e-06,0.4763903113105363,-3.832599745624427e-06
0.012,0.0001798631687102124,-2.6022230757052214e-09,-0.0006734176174901422,6.396160980259162e-06,0.0070919437875255,-6.596361871627923e-07,0.026034176034537837,-6.039274375941244e-07,-0.05522032727099052,0.0007267321671139,0.8061995245831526,-7.631096297171302e-05,0.3110612168310354,25.131027502068406,0.0,0.0,1.095061940393995,2.4227798789297847e-09,-2.5440034829813145,-1.8479291663041459e-06,0.3066285926333549,-4.31750442542013e-06
0.013000000000000001,0.0002079908555943796,-3.3070580665555114e-09,-0.000721866931522954,7.128577964586103e-06,0.00790459500869891,-7.369883615168141e-07,0.02812768688416718,-7.048349908502901e-07,-0.048449314032811816,0.000732416984326941,0.812651221173409,-7.735217435402184e-05,0.3360913622623062,24.92662826464106,0.0,0.0,1.0946197370448403,2.7102772121856573e-09,-1.6920300281642817,-2.050685495324569e-06,0.13929203812274585,-4.789992608215793e-06
0.014,0.00023820933102399855,-4.11515636707734e-09,-0.0007620252897873914,7.859799575035804e-06,0.008716083670385674,-8.14701681003095e-07,0.03021847542961896,-8.080983005218282e-07,-0.0401583582644374,0.0007312216104497017,0.8114886616867638,-7.771331948628088e-05,0.3609092251855914,24.706484834539374,0.0,0.0,1.0915517035791418,2.9027205832588982e-09,-0.8525024526927415,-2.2455951330883796e-06,-0.025099641015497564,-5.244705992287114e-06
0.015,0.0002705087946822493,-5.027404037715178e-09,-0.0007923988092631161,8.583091055330541e-06,0.009518955395180741,-8.921038857236909e-07,0.032299463658250774,-9.122476706378386e-07,-0.030373519475724736,0.0007232914802947383,0.8028717247950681,-7.740220472059582e-05,0.3854991301067376,24.470736259072222,0.0,0.0,1.085481752346077,2.9856662793036124e-09,-0.027268723480989573,-2.4304710848938057e-06,-0.1860395419331464,-5.677184549813333e-06
0.016,0.0003048719314249615,-6.0433556934524105e-09,-0.0008115228534624289,9.291883567167949e-06,0.010305938315870648,-9.685326610933762e-07,0.03436313674271218,-1.015951655737232e-06,-0.019124044199312903,0.0007087925118374074,0.786982920689907,-7.642877536968525e-05,0.40984554551475144,24.219531442092755,0.0,0.0,1.0760868487402748,2.9735885013741474e-09,0.7819350273450025,-2.603455364619883e-06,-0.3430390504460299,-6.083868338094323e-06
0.017,0.0003412736391680432,-7.1614314077524515e-09,-0.0008179650105081778,9.979793651430971e-06,0.011069964614383511,-1.0433378836405908e-06,0.03640170774308173,-1.1180757143000414e-06,-0.006442157045748824,0.0006879100842630223,0.7640262985128634,-7.480522254721472e-05,0.4339330936918346,23.95302904994756,0.0,0.0,1.0630989451617496,2.937536830745983e-09,1.573486799978455,-2.763021657245674e-06,-0.49563314093467026,-6.462083696241215e-06
0.018000000000000002,0.00037968091733885193,-8.379166640405057e-09,-0.0008103278614785993,1.064064145973209e-05,0.011804190735295515,-1.1158839361560672e-06,0.03840727817080872,-1.2177352326526051e-06,0.007637149029578492,0.0006608478083011204,0.7342261209120033,-7.254605251547643e-05,0.45774656042628037,23.671397411259562,0.0,0.0,1.0463060364092671,3.039035906084194e-09,2.34587869303288,-2.9079731312278853e-06,-0.6433854040857709,-6.8100141420462e-06
0.019,0.00042005291310979754,-9.693509120445742e-09,-0.0007872515420373732,1.1268467563935253e-05,0.012502016057598217,-1.1855520537391323e-06,0.040371995770945614,-1.3143424800406857e-06,0.023076319441226123,0.0006278261042031628,0.6978253223027034,-6.966811758306507e-05,0.4812709046220957,23.374814410608085,0.0,0.0,1.0255543005948917,3.506032058308734e-09,3.097714791398349,-3.0374350676884974e-06,-0.7858927167123844,-7.126656745526321e-06
0.02,0.0004623411266046814,-1.1101156405570361e-08,-0.000747416093740058,1.1857548169904771e-05,0.013157099828687013,-1.2517426620917135e-06,0.04228821349488387,-1.4076472851246193e-06,0.039835448297315196,0.0005890806059695182,0.6550837710887958,-6.619060835258128e-05,0.50449126779928,23.06346737617312,0.0,0.0,1.0007526978706272,4.493303543643434e-09,3.8277127628313523,-3.150842303933579e-06,-0.9227894742478158,-7.411765204700951e-06
0.021,0.0005064897697191309,-1.2598927419404839e-08,-0.00068954358967549,1.2402408583310635e-05,0.013763376188185544,-1.313877670009954e-06,0.044148643114449534,-1.4977710138344779e-06,0.057872504064568064,0.0005448604134058649,0.6062763594985311,-6.213500791824055e-05,0.5273929834787591,22.73755296141484,0.0,0.0,0.9718741356352635,6.011632661279724e-09,4.534712001022117,-3.2479220068172765e-06,-1.0537513125392355,-7.665781933466968e-06
0.022,0.0005524362633234745,-1.4184160813417761e-08,-0.0006124000245778493,1.289783479929508e-05,0.01431506713562613,-1.3714026794165759e-06,0.045946493604343594,-1.5852333940129224e-06,0.07714356509764063,0.0004954262159844445,0.5516909474405852,-5.752500940662182e-05,0.5499615864460481,22.39727702086306,0.0,0.0,0.9389512881021921,8.013887087301292e-09,5.217678814731299,-3.3286723343236786e-06,-1.1784982595528382,-7.889762446132282e-06
0.023,0.0006001122472861347,-1.5855133000923075e-08,-0.0005147969898012117,1.33388824877129e-05,0.014806692630832263,-1.4237890149117867e-06,0.04767598396266019,-1.6709721875053157e-06,0.09760303477663762,0.00044104768841781973,0.49162549520613386,-5.2386335495210846e-05,0.5721828218877913,22.04285448009511,0.0,0.0,0.9022879350723301,1.0462477441624777e-08,5.875694974132346,-3.393337256541507e-06,-1.296812248175601,-8.08529444689115e-06
0.024,0.0006494443633596029,-1.7611488959085104e-08,-0.0003955930951287876,1.3720884380345461e-05,0.015233078938826748,-1.4705356498113358e-06,0.049332116073468185,-1.7563559581620284e-06,0.11920389467242404,0.00038200189263256083,0.4263863079944853,-4.6746634899549136e-05,0.5940426543954067,21.674509199984207,0.0,0.0,0.8620539508460178,1.3341480899388027e-08,6.5079785701184045,-3.4423843288903068e-06,-1.4085131119606484,-8.254388887737328e-06
0.025,0.000700354758339867,-1.94546791207147e-08,-0.00025369513738646577,1.4039456212409085e-05,0.015589365383800251,-1.5111710214444044e-06,0.05091039498026398,-1.8431901616295968e-06,0.14189795774232183,0.0003185718320636241,0.3562864449735036,-4.063537163306853e-05,0.6155272768301522,21.292473835304172,0.0,0.0,0.8182603249264215,1.665450318376492e-08,7.113884184180219,-3.4764682453305194e-06,-1.513455032823526,-8.39941288220618e-06
0.026000000000000002,0.0007527629911563469,-2.1388395931908636e-08,-8.805910406178608e-05,1.4290497259375302e-05,0.015871005120255608,-1.5452543126154735e-06,0.05240823281647997,-1.9337168111939357e-06,0.1656360333246797,0.00025104104696621664,0.2816397364553582,-3.408329117106925e-05,0.6366231190440095,20.896989687779648,0.0,0.0,0.7716941773454368,2.042382711320422e-08,7.692854297643884,-3.496392819571207e-06,-1.611621361769225,-8.523031028958912e-06
0.027,0.0008065878356691875,-2.341900458749079e-08,0.00010230906579367926,1.4470188233057127e-05,0.0160737629821671,-1.572376454342989e-06,0.05382484451284062,-2.0306086555821546e-06,0.19036816985546534,0.0001796909736818248,0.20275786191149142,-2.7122141727515512e-05,0.6573168564508803,20.488306553674786,0.0,0.0,0.723088068719015,2.4692259177603096e-08,8.244462313825986,-3.503090922554926e-06,-1.7030585354174657,-8.628011941891511e-06
0.028,0.0008617519688560823,-2.5555962963042836e-08,0.0003183528127851901,1.4574971922193975e-05,0.01619369420916859,-1.592159349115004e-06,0.055164133186894775,-2.1369583755520448e-06,0.21604374699151083,0.00010478368913684675,0.11993122700148998,-1.9782894772015115e-05,0.6775954184426818,20.066682566016553,0.0,0.0,0.674776402230695,2.9526620415371883e-08,8.768329833907087,-3.49758450481829e-06,-1.7882258550597303,-8.71714121741707e-06
0.029,0.0009181994454531943,-2.7812229528185223e-08,0.0005609639029027682,1.4601421658324647e-05,0.01622699884786922,-1.6042436581023337e-06,0.05644747659711198,-2.2562665651423867e-06,0.24261109011757806,2.6449736130672007e-05,0.0333046387006294,-1.2084308987329761e-05,0.6974459966450214,19.632384031552384,0.0,0.0,0.6361715344590163,3.502228814230701e-08,9.263863444963407,-3.480921951233601e-06,-1.8702667941971534,-8.792705294529534e-06
0.03,0.0009758976579157752,-3.020468361107472e-08,0.0008309823378585716,1.4546184729987234e-05,0.016169959196580947,-1.6082840413437759e-06,0.05769821246258099,-2.392454082889499e-06,0.27001843495580335,-5.5236928337413775e-05,-0.05703965128827314,-4.040383241442294e-06,0.7168560530072406,19.18568526254515,0.0,0.0,0.6080987453468072,4.13085305296565e-08,9.73100629503059,-3.4536896012521434e-06,-1.9505319202624594,-8.853385457268437e-06
0.031,0.0010348178168222517,-3.275455116932591e-08,0.0011291974764863935,1.440614822244871e-05,0.016019123750499308,-1.6039669175308076e-06,0.05892015890647654,-2.5498675582511946e-06,0.298215138627822,-0.00014003650753852457,-0.1508354460816397,4.317123812968317e-06,0.7358133277217181,18.726868403511627,0.0,0.0,0.5795021376099786,4.855371951512065e-08,10.170376307993859,-3.4161617507089475e-06,-2.025049859445885,-8.896438801097477e-06
0.032,0.0010949355318628055,-3.548777537531836e-08,0.0014563484514983906,1.4178435084415844e-05,0.0157713030187063,-1.5910111110881944e-06,0.060117715040553764,-2.7332242059924473e-06,0.32715097501199714,-0.00022771313803286595,-0.2478207317930089,1.2955806442613115e-05,0.7543058469674252,18.256223253013978,0.0,0.0,0.5504749122299812,5.697080488891408e-08,10.582198206670737,-3.3693619941134116e-06,-2.093910922594307,-8.923744730468902e-06
0.033,0.0011562313736812246,-3.843536195054221e-08,0.0018131247944388866,1.3860399126936194e-05,0.015423564154048905,-1.5691683276665653e-06,0.06129584181841899,-2.947586575223853e-06,0.35677634294049587,-0.0003180359574796505,-0.3477388646573968,2.1842783421629007e-05,0.7723219304728487,17.774047080616793,0.0,0.0,0.5211150790856313,6.68227543494891e-08,10.966811957753697,-3.314326198306695e-06,-2.1572310505525394,-8.937166113386185e-06
0.034,0.0012186914126577617,-4.163369711538138e-08,0.0022001672611164586,1.3449619006997193e-05,0.014973224453303187,-1.5382234561114356e-06,0.06246003897653702,-3.1983351648391645e-06,0.38704246667757214,-0.0004107801199390018,-0.4503397007457171,3.094487155512967e-05,0.7898501988935005,17.28064443912523,0.0,0.0,0.4915246447672023,7.842749503408306e-08,11.324668838581163,-3.2520883967010557e-06,-2.215150574683563,-8.938521542370538e-06
0.035,0.001282307731307946,-4.5124836592958886e-08,0.002618068848695868,1.2943891254526111e-05,0.014417843792158463,-1.49799469732572e-06,0.06361631865018415,-3.49113947757751e-06,0.41790158757940904,-0.000505727752471081,-0.555380661144724,4.022875878571551e-05,0.806879580999356,16.776326972222947,0.0,0.0,0.4618087747771824,9.216246396822825e-08,11.656326890408472,-3.1836685267564962e-06,-2.2678328235701017,-8.929561209134452e-06
0.036000000000000004,0.0013470789075705903,-4.8956764670393984e-08,0.003067375994509935,1.2341222407413403e-05,0.013755216066360994,-1.44833352274136e-06,0.06477117626264432,-3.8319280774350994e-06,0.4493071458140675,-0.0006026688471127077,-0.6626277257974699,4.966117458435981e-05,0.8233993206676795,16.261413217631283,0.0,0.0,0.43207493993074103,1.0846868811699981e-07,11.962445741005254,-3.110062065014394e-06,-2.3154625827961994,-8.911946307687582e-06
0.037,0.001413010466857075,-5.318362286938623e-08,0.0035485899455248533,1.1639820324753528e-05,0.01298335971675841,-1.3891244673258986e-06,0.06593155928648475,-4.226858198992246e-06,0.4812139510149182,-0.0007014020826598755,-0.7718563496025836,5.9209055415461494e-05,0.8393989836768221,15.736228405913991,0.0,0.0,0.40243205631293544,1.278543366082435e-07,12.243780789242493,-3.032231567091169e-06,-2.3582444165162686,-8.887231825203057e-06
0.038,0.0014801153013231387,-5.7865908302369706e-08,0.004062168286279019,1.0838084753650255e-05,0.01210050742190398,-1.3202847641398922e-06,0.06710483446606366,-4.682285432983473e-06,0.513578340754166,-0.0008017355711032722,-0.8828522948544293,6.88397031860063e-05,0.8548684642967004,15.201104255054641,0.0,0.0,0.3729896275410334,1.5089770871138224e-07,12.50117675523236,-2.9511000748498003e-06,-2.396400861255938,-8.856852535489422e-06
0.039,0.0015484140553940744,-6.307064228318775e-08,0.0046085266120349305,9.934597229601824e-06,0.01110509504723937,-1.2417638294023998e-06,0.06829875407093576,-5.20473398081804e-06,0.5463583257559109,-0.0009034875240484306,-0.9954123746646111,7.852093473749238e-05,0.869797991671791,14.656378760936454,0.0,0.0,0.343856897292398,1.7824964139646568e-07,12.735560611201361,-2.867546310610941e-06,-2.430170504000603,-8.822111976665902e-06
0.04,0.001617935477115125,-6.88715102157436e-08,0.005188040332856166,8.92811039460616e-06,0.009995749944609065,-1.1535426087895582e-06,0.06952142172105065,-5.800867932555843e-06,0.5795137208212351,-0.001006486834995664,-1.109345102630304,8.822122061284171e-05,0.8841781359926135,14.102395983856823,0.0,0.0,0.3151420190781817,2.1063533954991729e-07,12.94793392025677,-2.782401539734518e-06,-2.4598059580657368,-8.784174172550417e-06
0.041,0.0016887167354023222,-7.534897419469003e-08,0.0058010465933672675,7.817536820657262e-06,0.008771278699912514,-1.05563279726472e-06,0.0707812582871971,-6.477463978946422e-06,0.6130062605111012,-0.001110573573948898,-1.2244712446965504,9.790981152483813e-05,0.8979998144517994,13.539505831211502,0.0,0.0,0.2869512490624586,2.4885564983364275e-07,13.13936462220969,-2.696447949077234e-06,-2.4855717514660394,-8.744057845894325e-06
0.042,0.0017608037037270302,-8.259036011419035e-08,0.006447846292093214,6.601937429200417e-06,0.007430654430026114,-9.480759461013832e-07,0.07208696832470801,-7.2413859195003204e-06,0.6467996987259471,-0.0012155993914568452,-1.3406242698863997,0.00010755685116333678,0.9112542969809881,12.96806383648554,0.0,0.0,0.25938816633566186,2.937878153553703e-07,13.310978317341903,-2.6104183604656413e-06,-2.5077421434736293,-8.702632870166514e-06
0.043000000000000003,0.0018342512111727402,-9.068992139037077e-08,0.0071287061835261165,5.2805095993469475e-06,0.005973003732694351,-8.309424719003202e-07,0.07344750744571,-8.099561276180416e-06,0.6808598914329025,-0.0013214278298534696,-1.457650697331763,0.00011713347420106309,0.9239332117649259,12.388430934690753,0.0,0.0,0.23255292343285264,3.463857624049822e-07,13.463949110202853,-2.524997076033783e-06,-2.526598885751961,-8.66061871407175e-06
0.044,0.0019091232621485923,-9.974888165756612e-08,0.007843861045447532,3.852575059201647e-06,0.004397593394878969,-7.043305833126082e-07,0.07487205097585213,-9.058960267195352e-06,0.7151548619214158,-0.001427934540145301,-1.5754103378153819,0.00012661188858771206,0.9360285505292827,11.800973234391426,0.0,0.0,0.20654152800910355,4.0767998219457553e-07,13.59949008603058,-2.440821636519713e-06,-2.5424289448523063,-8.618584648163701e-06
0.045,0.0019854932263246505,-1.0987545899613124e-07,0.008593515893562111,2.3175676555233517e-06,0.002703816966062857,-5.683651418578035e-07,0.07636996417605803,-1.0126577338565118e-05,0.7496548481145786,-0.0015350074036782951,-1.6937764288161121,0.0001359654414548046,0.9475326735988511,11.206061786462266,0.0,0.0,0.18144515438974246,4.787770795846872e-07,13.718843502147163,-2.3584852646854875e-06,-2.555522202951838,-8.576951504450702e-06
0.046,0.00206344400056345,-1.211848743897335e-07,0.009377848225187654,6.750210971295385e-07,0.0008911813032415413,-4.23196473672724e-07,0.07795077423879974,-1.1309415393602248e-05,0.7843323316255435,-0.0016425465583938131,-1.8126356628213156,0.00014516866818507955,0.9584383147229273,10.604072349724778,0.0,0.0,0.157349481108756,5.608590670367113e-07,13.823270785770386,-2.2785397640160586e-06,-2.566169153492039,-8.53599480642766e-06
0.047,0.002143068144755206,-1.337993471928912e-07,0.01019701027361334,-1.0754432330096445e-06,-0.0010407068061756824,-2.6899914924662187e-07,0.07962414419175565,-1.261447280315769e-05,0.8191620484256856,-0.0017504643301391829,-1.9318881094172236,0.0001541973244261021,0.968738585664833,9.995385153609876,0.0,0.0,0.13433404738386995,6.551824854427191e-07,13.914042438394555,-2.2014986476486713e-06,-2.574658607846631,-8.495849117179534e-06
0.048,0.002224467993514267,-1.4784808041619264e-07,0.011051131254797472,-2.934128303130675e-06,-0.0030921538385526243,-1.0597074820198401e-07,0.081399848759061,-1.4048733223301455e-05,0.8541209811841322,-0.0018586850701210306,-2.051447032376942,0.00016302840104463786,0.9784269805526709,9.380384657996869,0.0,0.0,0.1124716175148157,7.630774340782449e-07,13.992427955800737,-2.127840283746704e-06,-2.581275428322153,-8.456513485884663e-06
0.049,0.0023077557456547696,-1.63467238609044e-07,0.011940319588346881,-4.901273203298593e-06,-0.005263392442176402,6.566937402104693e-08,0.08328775214050291,-1.5619158192851367e-05,0.8891883335494091,-0.001967144900167918,-2.1712386036237774,0.00017164012222303093,0.9874973799885749,8.759459310380333,0.0,0.0,0.09182753706076997,8.859465898161215e-07,14.059685882874847,-2.0580108606986354e-06,-2.5862983016976364,-8.417857907170703e-06
0.05,0.0023930535332243917,-1.8079992104059645e-07,0.012864665075225625,-6.977064571292191e-06,-0.007554593958720869,2.456813011098356e-07,0.0852977875696221,-1.7332682431552443e-05,0.9243454868787438,-0.002075791367993598,-2.2912015165444672,0.00018001192708878865,0.9959440549138519,8.133001300518364,0.0,0.0,0.07245905777086804,1.025264291125822e-06,14.117054135445496,-1.992426997827184e-06,-2.5899975661904597,-8.379630742562134e-06
0.051000000000000004,0.0024804934716230608,-1.99996132751984e-07,0.013824241015415305,-9.161647586409912e-06,-0.009965880460377248,4.3380573655186106e-07,0.08743993839866912,-1.9196211711387554e-05,0.9595759401896801,-0.0021845830151177212,-2.4112865016563796,0.00018812443544202544,1.0037616702275778,7.501406312717118,0.0,0.0,0.054414598682187766,1.1825757555355994e-06,14.165740740134998,-1.9314778538037297e-06,-2.592633103279959,-8.341467088240961e-06
0.052000000000000005,0.0025702176919479144,-2.2121275588103025e-07,0.014819106249846588,-1.1455136446917754e-05,-0.01249733620847293,6.297651348534747e-07,0.08972422032485358,-2.1216623129046244e-05,0.9948652344312833,-0.0022934888605078414,-2.531455748095681,0.00019595939830161356,1.0109452881563628,6.865073275908113,0.0,0.0,0.0377328970685227,1.3594964905042923e-06,14.20691517246254,-1.8755266146446663e-06,-2.59445230438349,-8.30289810848508e-06
0.053,0.0026623783561548924,-2.44613523448576e-07,0.015849307112428494,-1.3857624250284866e-05,-0.015149018443276232,8.332647689840569e-07,0.09216066420697806,-2.3400767567545723e-05,1.0302008625819052,-0.0024024878033671124,-2.6516822348033022,0.00020349963413058216,1.0174903713731531,6.2244041116761935,0.0,0.0,0.022441982560542337,1.5577119474740896e-06,14.241700521071039,-1.8249112749663133e-06,-2.5956881212331604,-8.263361389998729e-06
0.054,0.002757137654860494,-2.7036899754856254e-07,0.016914879280063553,-1.6369192199122413e-05,-0.017920967418953423,1.043993720711541e-06,0.09475929870560164,-2.575547409998655e-05,1.0655721676350598,-0.0025115679488375486,-2.771948975677191,0.0002107289517274843,1.0233927858631062,5.5798034803971905,0.0,0.0,0.008557876634330537,1.7789774578096423e-06,14.27116678538107,-1.779944659122931e-06,-2.5965572084092554,-8.222212410330934e-06
0.055,0.0028546677865426,-2.9865655360777864e-07,0.018015849511397047,-1.8989918059905055e-05,-0.020813215602356886,1.261625781601027e-06,0.09753013168210603,-2.8287556059216076e-05,1.1009702313334941,-0.0026207258607826417,-2.8922481834034635,0.00021763206088948588,1.028648803534721,4.931678525645808,0.0,0.0,-0.003917129223766546,2.0251184781073625e-06,14.296325747952364,-1.7409136621769657e-06,-2.5972581676187283,-8.178737256492135e-06
0.056,0.0029551509154031137,-3.2966037208273577e-07,0.01915223726911917,-2.1719883806278088e-05,-0.023825795959662895,1.4858202536775621e-06,0.1004831288605137,-3.100381847495711e-05,1.136387757722124,-0.0027299657463730337,-3.012580357306007,0.00022419447207653519,1.0332551045745821,4.2804386170349895,0.0,0.0,-0.014996841723869928,2.298031162021416e-06,14.318128089470834,-1.7080777239124853e-06,-2.597969907254812,-8.132166782798426e-06
0.057,0.003058779103010247,-3.63571438649478e-07,0.020324056226611556,-2.4559182384425084e-05,-0.026958749261273205,1.716222640133498e-06,0.10362818760713328,-3.3911066566742245e-05,1.171818957492384,-0.002839298578146997,-3.1329533016103115,0.00023040238645593588,1.037208779544224,3.6264950916492924,0.0,0.0,-0.024714531182060673,2.5996832678797566e-06,14.337463794917756,-1.6816665823584021e-06,-2.598850140041081,-8.0816924686746e-06
0.058,0.003165754205709741,-4.0058755362976056e-07,0.02153131566873493,-2.750792354548289e-05,-0.030212130343834534,1.9524652180655622e-06,0.10697510269949427,-3.7016114980282544e-05,1.2072594421233744,-0.0029487411610578055,-3.25338108256133,0.00023624257793206414,1.040507331217795,2.9702609942355953,0.0,0.0,-0.033127837955415226,2.9321154084938162e-06,14.355167522598553,-1.6618773872911004e-06,-2.600034062890888,-8.026484341753057e-06
0.059000000000000004,0.0032762877252562874,-4.4091335110270547e-07,0.022774021810325635,-3.0566238701733006e-05,-0.03358601328136076,2.1941674872794345e-06,0.11053351954654649,-4.03257974729449e-05,1.2427061415907035,-0.0030583151562501177,-3.373882937526223,0.00024170226921387222,1.043148676159359,2.3121508163151474,0.0,0.0,-0.040326010930684456,3.2974426558882286e-06,14.372031562664585,-1.648871290516403e-06,-2.6016333202617328,-7.965711487206552e-06
0.06,0.0033906005939976255,-4.847603279049969e-07,0.02405217907673761,-3.373428478674898e-05,-0.03708049544354978,2.4409364924268737e-06,0.11431286874133788,-4.38469768022914e-05,1.2781572664119751,-0.0031680460850159737,-3.494482162189016,0.0002467690051474391,1.0451311460388377,1.6525802343818667,0.0,0.0,-0.04644038257559613,3.6978565359740525e-06,14.388830241900555,-1.6427696700474233e-06,-2.6037355311599377,-7.898565873716386e-06
0.061,0.0035089228697366697,-5.323468825775353e-07,0.02536579141997926,-3.701224715833119e-05,-0.040695700484498554,2.6923670224604504e-06,0.11832227573904427,-4.7586554672538424e-05,1.31361234324165,-0.0032779623715822157,-3.615205040948776,0.00025143053003357646,1.0464534886857644,0.9919658473521313,0.0,0.0,-0.05165819218293516,4.135627496406811e-06,14.406360426042024,-1.6436501863624411e-06,-2.606405221904019,-7.824290389766612e-06
0.062,0.0036314933158778408,-5.838983643713117e-07,0.02671486377762551,-4.0400341738233793e-05,-0.044431780477072,2.9480417076618688e-06,0.1225704461411711,-5.155148179377641e-05,1.3490723576462516,-0.0033880945799026007,-3.7360799925734405,0.00025567468520141823,1.047114868880181,0.3307249134320079,0.0,0.0,-0.056236182073615,4.6131080155517216e-06,14.425500543766093,-1.6515428842325185e-06,-2.609688473491204,-7.742211624090583e-06
0.063,0.0037585588658036535,-6.396471328696055e-07,0.02809940379995971,-4.389881693475672e-05,-0.04828891779834765,3.2075310700866003e-06,0.12706554992581273,-5.574876849829375e-05,1.3845400223341988,-0.0034984751965229217,-3.8571373212756535,0.00025948936242473146,1.047114868880181,-0.3307249134320046,0.0,0.0,-0.06050156303797049,5.132736639121836e-06,14.44727963945424,-1.6664264539839054e-06,-2.613625992649813,-7.651775675166281e-06
0.064,0.003890374033256574,-6.998326299165156e-07,0.029519423930441928,-4.750795643679022e-05,-0.052267327972536894,3.470393636644415e-06,0.13181516745292055,-6.01854970469101e-05,1.420020130482216,-0.0036091395020334963,-3.9784101741892415,0.00026286256655781465,1.0464534886857644,-0.9919658473521282,0.0,0.0,-0.06481892640682821,5.697043332047447e-06,14.47292409797417,-1.6882244017503764e-06,-2.6182791580117524,-7.552579045685358e-06
0.065,0.004027200411359054,-7.647014675493522e-07,0.030974943787085974,-5.122808425626122e-05,-0.056367264996626525,3.7361762490949224e-06,0.13682637810248072,-6.486883763283656e-05,1.4555198566440448,-0.003720127819471001,-4.099937024089633,0.00026578261245050714,1.0451311460388377,-1.6525802343818634,0.0,0.0,-0.06951365244416355,6.308656476951412e-06,14.503828504609437,-1.7168003268117923e-06,-2.6237629501074125,-7.444377618795006e-06
0.066,0.004169306421653697,-8.345075379060203e-07,0.032465992602162465,-5.505957268754055e-05,-0.06058902988770351,4.004414627253197e-06,0.1421060102946431,-6.980607035666807e-05,1.4910488150764933,-0.003831488431279329,-4.221764891076987,0.0002682383781582747,1.043148676159359,-2.3121508163151496,0.0,0.0,-0.07478630537761424,6.970311489441941e-06,14.541421783854778,-1.7519516124299987e-06,-2.63026190555985,-7.327056388553085e-06
0.067,0.004316967382895713,-9.095121518715605e-07,0.03399261137521777,-5.9002852278581695e-05,-0.0649329814456816,4.274634077889831e-06,0.14766096124201536,-7.500461396554025e-05,1.5266187730553074,-0.003943279591041152,-4.343951557978095,0.00027021945063663444,1.040507331217795,-2.970260994235598,0.0,0.0,-0.0806781571521127,7.684860478594812e-06,14.58697721972388,-1.7934024932563462e-06,-2.6380083914877908,-7.200564369228923e-06
0.068,0.004470465842967968,-9.899842111657087e-07,0.03555485446401504,-6.305842181077349e-05,-0.06939954700836228,4.546350132536708e-06,0.1534984600722544,-8.047205929414822e-05,1.5622430887972656,-0.004055569532191798,-4.466565562680666,0.0002717160546468767,1.037208779544224,-3.6264950916492946,0.0,0.0,-0.08710531299461247,8.455282110497592e-06,14.641461235878792,-1.8407992123107725e-06,-2.647234609507394,-7.064847410439924e-06
0.069,0.004630092058718209,-1.0762004145561135e-06,0.03715279050358332,-6.722685648017957e-05,-0.07398923119348796,4.81906892489933e-06,0.15962621575024058,-8.621620339040489e-05,1.5979360395682796,-0.00416843466940608,-4.589684185125682,0.00027271879236262205,1.0332551045745821,-4.280438617034986,0.0,0.0,-0.09392278596272359,9.284691047097773e-06,14.705473609923377,-1.893709237029973e-06,-2.6581293004293163,-6.91981195644932e-06
0.07,0.004796144525522223,-1.1684454951518068e-06,0.0387865026817676,-7.150881339216817e-05,-0.07870262164246628,5.092287220175667e-06,0.16605246680401478,-9.224508059569331e-05,1.6337121781842854,-0.004281956911988608,-4.71339044897831,0.00027321829527633706,1.028648803534721,-4.931678525645811,0.0,0.0,-0.10097691746774407,1.0176346710028968e-05,14.779263784897205,-1.95162408537746e-06,-2.6708164711824565,-6.765327023898679e-06
0.07100000000000001,0.0049689305007225475,-1.2670124835756976e-06,0.04045608846331507,-7.590503428483995e-05,-0.08354039167168939,5.365492095584711e-06,0.17278597520032402,-9.85669884238907e-05,1.6695857815474666,-0.0043962208926717735,-4.837770029223109,0.00027320487540904303,1.023392785863106,-5.579803480397193,0.0,0.0,-0.10813308850200062,1.1133661326535414e-05,14.862782079578544,-2.013964033267379e-06,-2.685353363721183,-6.6012513731955455e-06
0.07200000000000001,0.00514876649832396,-1.3722029910950993e-06,0.04216165886259912,-8.041634579694973e-05,-0.08850330018142673,5.638160314386462e-06,0.17983599760141297,-0.00010519050751940179,1.7055703992840547,-0.0045113115121097865,-4.96290850973734,0.00027266821880175135,1.0174903713731531,-6.224404111676196,0.0,0.0,-0.1152846300621934,1.2160207239405208e-05,14.955735185004032,-2.080083385507259e-06,-2.7017380110474174,-6.427470208640319e-06
0.073,0.005335978749925051,-1.4843275068418198e-06,0.04390333734883284,-8.504365769494521e-05,-0.09359218928203525,5.90975744618527e-06,0.18721225160109042,-0.00011212451574672061,1.7416784862337145,-0.004627311897995477,-5.088889100608524,0.00027159713179880884,1.0109452881563628,-6.86507327590811,0.0,0.0,-0.1223520430608255,1.3259723418382208e-05,15.057632597345155,-2.149275915445052e-06,-2.719919163082443,-6.2439316743972245e-06
0.074,0.005530903633707666,-1.6037057035524474e-06,0.04568125844649524,-8.97879594332365e-05,-0.09880798005232418,6.179736781929109e-06,0.19492488378261572,-0.00011937819671062759,1.7779210976624022,-0.004744301738291287,-5.215790770288924,0.0002699793357438388,1.003761670227578,-7.5014063127171156,0.0,0.0,-0.1292786228722001,1.443612106315882e-05,15.167821339236625,-2.220780716206997e-06,-2.7398052429900357,-6.0506790778490435e-06
0.075,0.005733888074741848,-1.7306667465424876e-06,0.047495566075522244,-9.46503153424238e-05,-0.10415166675687082,6.447538083588151e-06,0.20298444103418076,-0.00012696104299004027,1.8143076290270024,-0.004862355909187305,-5.343686704546649,0.0002678013016590416,0.995944054913852,-8.13300130051836,0.0,0.0,-0.13602546782205388,1.5693488152743017e-05,15.285510620721983,-2.2937889701822823e-06,-2.761271402710968,-5.84787780657271e-06
0.076,0.00594528991910892,-1.865549600806092e-06,0.049346411662392224,-9.963185866493394e-05,-0.10962430976559978,6.712586200632473e-06,0.21140184436707257,-0.0001348828542636043,1.850845586869977,-0.0049815433225101355,-5.472643008728968,0.0002650481170443226,0.987497379988575,-8.759459310380329,0.0,0.0,-0.14256701938573504,1.7036092770370007e-05,15.40978906571467,-2.367452182563192e-06,-2.7841647760700274,-5.635836993050337e-06
0.077,0.0061654782829422775,-2.008703331198009e-06,0.051233952044101666,-0.00010473378459889428,-0.11522702735392763,6.974289579464632e-06,0.22018836383335674,-0.00014315373039191717,1.88754038170944,-0.005101925933960338,-5.602717588327855,0.0002617033788321586,0.978426980552671,-9.380384657996865,0.0,0.0,-0.14888742431230584,1.84683850133729e-05,15.539636866867989,-2.4408923590812403e-06,-2.8083083283187533,-5.415026114683758e-06
0.078,0.006394833876066544,-2.1604873906260667e-06,0.05315834718117343,-0.00010995734246943865,-0.12096098651561762,7.232038687917456e-06,0.22935559312426623,-0.00015178405942805752,1.9243951370717662,-0.005223557870544369,-5.733959161689986,0.0002577491084528233,0.968738585664833,-9.995385153609874,0.0,0.0,-0.1549776713832548,1.9994997281265407e-05,15.673934673428358,-2.5132144869807004e-06,-2.833503709132163,-5.186086492234375e-06
0.079,0.006633749298684908,-2.3212718910864786e-06,0.05511975769233474,-0.00011530382711869572,-0.12682739288953454,7.485204374429886e-06,0.238915422618364,-0.0001607845004604118,1.9614105111613074,-0.005346484649257079,-5.866406373916913,0.0002531656865124301,0.9584383147229274,-10.604072349724774,0.0,0.0,-0.16083335852147373,2.1620742721641984e-05,15.811470499695677,-2.5835215060682063e-06,-2.8595334373031602,-4.949837341493506e-06
0.08,0.0068826293085466166,-2.491437852233859e-06,0.05711834222163604,-0.00012077456958783493,-0.13282747988173563,7.73313618015909e-06,0.24888000986170863,-0.00017016596114738036,1.998584529301305,-0.0054707424691391995,-6.0000869922010995,0.0002479318057292041,0.947532673598851,-11.206061786462268,0.0,0.0,-0.16645294611720107,2.33506116020414e-05,15.95094555053045,-2.6509317176042933e-06,-2.8861626589418217,-4.707275754532728e-06
0.081,0.007141891055189394,-2.67137742201235e-06,0.05915425464806316,-0.00012637092715378658,-0.13896249705252536,7.975160621742761e-06,0.25926174664277746,-0.00017993956977849118,2.0359124264271244,-0.005596357565951649,-6.135017170789748,0.00024202444158367113,0.9360285505292829,-11.800973234391417,0.0,0.0,-0.17183638221815448,2.5189765366825515e-05,16.090979588433562,-2.7145982523434276e-06,-2.9131406507381477,-4.459569791413877e-06
0.082,0.007411964277154873,-2.861494063699699e-06,0.06122764114779153,-0.00013209427277744538,-0.14523369783186243,8.210579462441766e-06,0.27007322196547867,-0.00019011664168734879,2.0733864997283638,-0.0057233456236587925,-6.27120077933707,0.00023541884069900543,0.9239332117649259,-12.388430934690755,0.0,0.0,-0.17698401698922217,2.7143528131885475e-05,16.230116283674505,-2.773729790493208e-06,-2.9402021885177727,-4.2080437908941415e-06
0.083,0.007693291457488196,-3.0622027035459583e-06,0.06333863711991962,-0.00013794598401777337,-0.15164232662416705,8.438667989785206e-06,0.2813271803333234,-0.00020070863984625935,2.1109959721280966,-0.005851711240327982,-6.408628792304619,0.0002280885273434412,0.9112542969809881,-12.968063836485536,0.0,0.0,-0.18189574910023,2.921737536725449e-05,16.366828865503965,-2.8276111975007126e-06,-2.967068865268664,-3.954155105630466e-06
0.084,0.007986327932336485,-3.2739298330346507e-06,0.06548736398764402,-0.0001439274314661555,-0.15818960536396875,8.658673318465811e-06,0.29303647484828943,-0.0002117271294886925,2.148726867724391,-0.0059814474483821135,-6.547278739801708,0.0002200053286806056,0.8979998144517993,-13.539505831211503,0.0,0.0,-0.18657036461138315,3.141691951921442e-05,16.49952630709625,-2.875622141333317e-06,-2.9934504176316823,-3.699461788426239e-06
0.085,0.00829154194704538,-3.4971135596675912e-06,0.0676739258882881,-0.00015003996675684784,-0.164876719586133,8.869812737977603e-06,0.3052140147088954,-0.00022318372663294057,2.1865619006440875,-0.006112535290692357,-6.687114222164241,0.00021113941951179257,0.8841781359926134,-14.102395983856832,0.0,0.0,-0.19100504082733805,3.374789232999989e-05,16.62656021518368,-2.9172511631892593e-06,-3.0190461020118855,-3.4455813542637974e-06
0.08600000000000001,0.008609414653816408,-3.7322036000853313e-06,0.0698984062672857,-0.0001562849102118298,-0.17170480407801111,9.071272125248632e-06,0.3178727067710267,-0.0002350900404177399,2.2244803789976015,-0.00624494345498195,-6.828084491878096,0.00020145938727102907,0.8697979916717911,-14.656378760936454,0.0,0.0,-0.19519499497058385,3.621612362550643e-05,16.74623254810877,-2.9521022110038626e-06,-3.043546148546546,-3.194141647222058e-06
0.08700000000000001,0.008940440044734072,-3.979661209293068e-06,0.07216086439307692,-0.00016266353818141568,-0.1786749281853284,9.262204443206564e-06,0.33102539091766303,-0.00024745760920773685,2.2624581257912157,-0.006378627969585887,-6.970124107317291,0.00019093231795793333,0.8548684642967003,-15.201104255054647,0.0,0.0,-0.19913326158139955,3.8827516360254386e-05,16.856804247204103,-2.979890490197902e-06,-3.0666333115850852,-2.94672602372372e-06
0.088,0.009285124813807739,-4.239959039776181e-06,0.07446133181183456,-0.0001691770701453188,-0.18578808084862491,9.441728346739491e-06,0.34468476907366746,-0.0002602978304831139,2.300467418757635,-0.006513531963903106,-7.113152663296523,0.00017952390353292614,0.8393989836768224,-15.736228405913979,0.0,0.0,-0.20281058427618714,4.1588017734950467e-05,16.956504832026003,-3.0004248384513968e-06,-3.0879845281103515,-2.7048164021710324e-06
0.089,0.009643988141609022,-4.513580924369244e-06,0.07679980876294398,-0.00017582665564231818,-0.19304515545233772,9.608926917806053e-06,0.3588633278012827,-0.0002736218845930627,2.3384769511094174,-0.00664958549699938,-7.257074603712813,0.00016719857106656247,0.8233993206676796,-16.26141321763128,0.0,0.0,-0.2062154078346464,4.4503586235934014e-05,17.043542977427542,-3.013574855344715e-06,-3.107272690041228,-2.4697389850994172e-06
0.09,0.010017561396130166,-4.801021576895971e-06,0.07917626057814746,-0.00018261336110018652,-0.20044693457397011,9.762846551455296e-06,0.3735732545211437,-0.0002874406525267268,2.3764518152034757,-0.006786705457868327,-7.401779121632409,0.0001539196336492436,0.806879580999356,-16.776326972222947,0.0,0.0,-0.20933395651541536,4.7580154488072707e-05,17.116118058280907,-3.0192227579299495e-06,-3.124168532174316,-2.2426182908868435e-06
0.091,0.01040638774365095,-5.102786204833303e-06,0.0815906140891749,-0.00018953815664109544,-0.20799407472608017,9.902496014212242e-06,0.38882634752078366,-0.00030176462793733255,2.4143535110274423,-0.00692479554090893,-7.54714015211005,0.0001396494627569455,0.7898501988935007,-17.280644439125226,0.0,0.0,-0.21215038495874317,5.082358786358989e-05,17.172432615373246,-3.0172022290938233e-06,-3.1383426342744634,-2.024345162935881e-06
0.092,0.010811021663685588,-5.419390028578309e-06,0.08404275407045524,-0.00019660190294136157,-0.21568709118891327,1.0026845695677321e-05,0.404633920034639,-0.0003166038237450061,2.452139981280347,-0.007063746300266141,-7.693016462833114,0.00012434968146507867,0.7723219304728487,-17.774047080616793,0.0,0.0,-0.21464698972436946,5.4239638848972035e-05,17.21070566402944,-3.007228973820991e-06,-3.1494675331125457,-1.8155633782110683e-06
0.093,0.011232028362488246,-5.7513577023189305e-06,0.08653251974507799,-0.0002038053382281518,-0.22352634303628105,1.0134827073313208e-05,0.42100669880265806,-0.00033196767374062147,2.489765674622755,-0.007203435286790233,-7.839251847367773,0.00010798137763588676,0.7543058469674253,-18.256223253013975,0.0,0.0,-0.2168044726406619,5.78338972404077e-05,17.229186736460363,-2.9888297125544918e-06,-3.157219937641059,-1.6166773258282552e-06
0.094,0.01166998308012376,-6.099222632034982e-06,0.08905970138349781,-0.0002111490654995841,-0.2315120184616153,1.0225332409306459e-05,0.43795471763551475,-0.0003478649297160519,2.5271816384198162,-0.007343727271432294,-7.985675425334232,9.05053359932509e-05,0.7358133277217181,-18.726868403511624,0.0,0.0,-0.21860225125833482,6.161173631479646e-05,17.226170521070962,-2.9612773207607082e-06,-3.1612830375918417,-1.4278802869689025e-06
0.095,0.012125470286755136,-6.463526186789117e-06,0.09162403702549897,-0.00021863354005838842,-0.23964412051484305,1.0297214697149077e-05,0.45548720663137526,-0.00036430355475413446,2.5643356420011547,-0.007484474558804313,-8.132102053227747,7.188228784261755e-05,0.7168560530072409,-19.185685262545146,0.0,0.0,-0.22001881577469706,6.557825520762593e-05,17.200011938140648,-2.923539386445238e-06,-3.1613488923165516,-1.2491997483114735e-06
0.096,0.012599082764557505,-6.844816800211845e-06,0.09422520935662088,-0.0002262590574526757,-0.24792245336364768,1.0349287874223215e-05,0.47361247780236904,-0.0003812906134227277,2.601172331121911,-0.007625517394287281,-8.278332848804633,5.207317707413884e-05,0.6974459966450214,-19.632384031552384,0.0,0.0,-0.22103213455158208,6.973821782003028e-05,17.149141471940126,-2.874245619294605e-06,-3.157120882653098,-1.0805536776721548e-06
0.097,0.01309142057253755,-7.243648959940979e-06,0.09686284277055769,-0.00023402574192007324,-0.2563466091946005,1.0380327315195478e-05,0.4923378079800452,-0.00039883215972913406,2.6376334139368147,-0.007766684467397549,-8.424155830952815,3.103944097226276e-05,0.6775954184426818,-20.066682566016553,0.0,0.0,-0.22162011078647453,7.409598867386127e-05,17.072080564274824,-2.8116767510440594e-06,-3.1483162042352606,-9.218103950543685e-07
0.098,0.01360308989251767,-7.660582083742044e-06,0.09953650064895787,-0.00024193353543317949,-0.26491595587036953,1.0389070619406991e-05,0.5116693199801204,-0.000416933123801066,2.673657878400176,-0.007907793513106245,-8.56934667576904,8.743304211513064e-06,0.6573168564508804,-20.488306553674782,0.0,0.0,-0.2217610906877119,7.865546623395591e-05,16.96745686296034,-2.733774532679038e-06,-3.1346683763926126,-7.728448299635161e-07
0.099,0.014134701755636279,-8.096179282107149e-06,0.1022456828895419,-0.00024998218744467425,-0.2736296254585645,1.0374218703629318e-05,0.5316118631186083,-0.0004355971983651037,2.709182240584035,-0.008048652011494779,-8.71366958819498,-1.4851915777672665e-05,0.6366231190440093,-20.89698968777965,0.0,0.0,-0.22143441913001127,8.342001431889366e-05,16.83401911011423,-2.6381698802775765e-06,-3.115929737065136,-6.335853779894471e-07
0.1,0.014686870649919052,-8.551006008297047e-06,0.10498982371251077,-0.0002581712454292847,-0.28248650374562745,1.0334437209484807e-05,0.552168894282774,-0.0004548267261898981,2.7441408229688617,-0.008189057984610464,-8.85687828706293,-3.9781494144510653e-05,0.6155272768301523,-21.292473835304172,0.0,0.0,-0.22062103329129149,8.839239232287254e-05,16.67065144903475,-2.522224628545121e-06,-3.0918738913146258,-5.040477482205886e-07
0.101,0.015260213010786868,-9.02562859804295e-06,0.10776828977382175,-0.0002665000463170486,-0.2914852208454433,1.026835823245374e-05,0.5733423608678163,-0.00047462258974590495,2.778466061310981,-0.00832880088776387,-8.99871709981587,-6.607897703106682e-05,0.5940426543954066,-21.674509199984207,0.0,0.0,-0.21930407943489394,9.357468506900736e-05,16.47638692501657,-2.383081849712026e-06,-3.062298079192516,-3.843545201608979e-07
0.10200000000000001,0.015855345597775374,-9.520612702445983e-06,0.11058037861205623,-0.0002749677089079257,-0.3006241430069849,1.0174582376682602e-05,0.595132586988507,-0.000494984104403032,2.8120888382344904,-0.00846766259087711,-9.1389221615416,-9.377585577113873e-05,0.5721828218877915,-22.042854480095105,0.0,0.0,-0.21746953382015294,9.896823320517131e-05,16.25041995534704,-2.217720107889896e-06,-3.0270254278787583,-2.747411055336859e-07
0.10300000000000001,0.01647288376223349,-1.0036521618985317e-05,0.11342531745329681,-0.00028357312735184334,-0.3099013657183196,1.005168113676843e-05,0.6175381644581133,-0.0005159089165393348,2.8449388412405865,-0.008605418443917661,-9.277222711334662,-0.00012290123991417194,0.5499615864460481,-22.39727702086306,0.0,0.0,-0.21510680627355688,0.00010457356513409778,15.992117547721199,-2.0230079986193614e-06,-2.9859070529873297,-1.7555016117031324e-07
0.10400000000000001,0.017113439612322215,-1.0573914526950522e-05,0.11630226239567994,-0.00029231496577081847,-0.3193147081957228,9.89819960435072e-06,0.640555850088725,-0.0005373929079652049,2.876944942383119,-0.008741838418975153,-9.413342477403189,-0.00015348153241770963,0.5273929834787588,-22.737552961414842,0.0,0.0,-0.21220930434813468,0.0001103903315364193,15.701029055089705,-1.79575650527168e-06,-2.938823974567803,-8.721717655389849e-08
0.105,0.017777620083224532,-1.1133344635026617e-05,0.11921029799211595,-0.00030119165409099466,-0.3288617093365175,9.7126594937435e-06,0.6641804709023159,-0.0005594301080760955,2.9080355964360125,-0.00887668832017619,-9.547001140794727,-0.0001855401106072208,0.5044912677992803,-23.06346737617311,0.0,0.0,-0.2087749370187054,0.00011641724359529798,15.376894268908401,-1.5327678074230444e-06,-2.8856888144874127,-1.0250075605219094e-08
0.106,0.01846602492207085,-1.1715357250157488e-05,0.1221484372461024,-0.0003102013851423842,-0.33853962520266434,9.493562477050224e-06,0.6884048388463204,-0.0005820126151308714,2.9381392539864537,-0.009009731051389561,-9.677915866146833,-0.00021909701669327563,0.4812709046220959,-23.37481441060808,0.0,0.0,-0.20480653911274677,0.0001226520160611695,15.01964967197376,-1.2308800420413125e-06,-2.826447243495048,5.4794590176849624e-08
0.107,0.019179244598649208,-1.2320487778168418e-05,0.12511562203164028,-0.000319342113072937,-0.34834542808916125,9.239393815296958e-06,0.7132196765783558,-0.0006051305280109289,2.967184785537876,-0.00914072793055279,-9.8058028864969,-0.0002541686617532657,0.4577465604262803,-23.671397411259562,0.0,0.0,-0.20031220073829006,0.00012909131630207878,14.629432696324221,-8.870080962170919e-07,-2.76107914835885,1.0733673886332684e-07
0.108,0.019917858154469607,-1.2949259667914838e-05,0.12811072394404907,-0.00032861155311139265,-0.3582758072170972,8.948626268174025e-06,0.7386135558203992,-0.0006287718897464197,2.995101912408784,-0.009269440038455652,-9.930379127935952,-0.000290767547122934,0.43393309369183475,-23.95302904994756,0.0,0.0,-0.1953054894785846,0.00013573072046681195,14.206583860713161,-4.981808236559578e-07,-2.6895994920967983,1.4679754035193045e-07
0.109,0.02068243100415244,-1.3602182311914781e-05,0.1311325455840258,-0.0003380071827003514,-0.36832717107588947,8.619724261074418e-06,0.7645728496828318,-0.0006529226439999429,3.021821639976717,-0.009395629588958763,-10.051363858792302,-0.00032890200709960666,0.4098455455147514,-24.219531442092755,0.0,0.0,-0.18980555681578196,0.0001425646778428143,13.751646695468676,-6.157518575907755e-08,-2.612058843576103,1.7262275603634606e-07
0.11,0.02147351270437643,-1.4279748917490096e-05,0.1341798222726755,-0.000347526244007276,-0.37849565142300584,8.251148284340559e-06,0.791081700223988,-0.0006775666055753155,3.04727668864972,-0.009519061306924578,-10.168480347116356,-0.0003685759767338602,0.38549913010673786,-24.47073625907222,0.0,0.0,-0.18383712396605506,0.0001495864844177653,13.265365399632323,4.2545221048457194e-07,-2.528543556734545,1.8430390547727472e-07
0.111,0.022291634706719236,-1.4982434363360736e-05,0.13725122419053362,-0.0003571657478068954,-0.3887771089325498,7.84135949606013e-06,0.8181220023428062,-0.0007026854458706403,3.071401917858117,-0.009639503799619423,-10.28145750954396,-0.000409788788280429,0.3609092251855914,-24.706484834539374,0.0,0.0,-0.17743034598970223,0.00015678826655256788,12.74868021550419,9.653358116436583e-07,-2.4391755844432814,1.8139683466853073e-07
0.112,0.023137308111622627,-1.571069305738349e-05,0.140345358928887,-0.0003669224787139329,-0.3991671404667301,7.388824496465463e-06,0.8456734049033914,-0.0007282586940227533,3.094134738353363,-0.009756730907037502,-10.390031534180286,-0.00045253499959466733,0.33609136226230635,-24.92662826464106,0.0,0.0,-0.17062055667438883,0.0001641609755452667,12.202720548369037,1.5602738260175986e-06,-2.3441119176105847,1.6353748018066886e-07
0.113,0.024011021441386733,-1.6464956811680484e-05,0.14346077443706975,-0.00037679300173046364,-0.4096610879267354,6.8920202390640955e-06,0.8737133297641078,-0.0007542637542969934,3.1154155081827657,-0.009870523016530743,-10.493947460005316,-0.000496804257401367,0.3110612168310354,-25.131027502068406,0.0,0.0,-0.16344790029125328,0.00017169439371193045,11.628795903290445,2.212202852386262e-06,-2.2435436464836886,1.3045477347919643e-07
0.114,0.024913238450521114,-1.724563275174605e-05,0.14659596234495084,-0.0003867736700577921,-0.42025404862222215,6.349439041130782e-06,0.9022170091343804,-0.0007806759400655678,3.1351879078810985,-0.009980668327328468,-10.592960695486775,-0.0005425811979333136,0.28583459846811443,-25.319553443882082,0.0,0.0,-0.1559568598886967,0.0001793771524347269,11.02838475527712,2.9227744635100765e-06,-2.1376946481384786,8.198072764590932e-08
0.115,0.0258443959919358,-1.805310127623986e-05,0.14974936163563304,-0.00039686063410881094,-0.4309408870818424,5.7595936541861956e-06,0.9311575414146852,-0.0008074685244938117,3.1533992906822044,-0.010086964051018851,-10.686838459620255,-0.0005898453869445864,0.26042744084639413,-25.492087013056477,0.0,0.0,-0.1481956952661077,0.00018719676243317293,10.403121512485983,3.6933338749560344e-06,-2.0268199116834706,1.8057810472447632e-08
0.116,0.026804901957330818,-1.8887714084061024e-05,0.15291936263953523,-0.0004070498516436626,-0.4417162482113543,5.121022353628962e-06,0.9605059653950188,-0.0008346128078211617,3.1700010039021858,-0.010189217534851648,-10.775361129511904,-0.0006385713005572337,0.23485579167118933,-25.648519233691335,0.0,0.0,-0.14021580704719314,0.00019513965630660237,9.754781772945044,4.524900896782176e-06,-1.911203520515546,-6.125625388312262e-08
0.117,0.0277951333097318,-1.9749792284949e-05,0.15610431131760955,-0.00041733709893947233,-0.45257457169123083,4.4322940058184185e-06,0.9902313524009817,-0.0008620782008879759,3.1849486780743166,-0.010287247295809746,-10.858323479876539,-0.000688728347810543,0.2091358025442073,-25.788751299843213,0.0,0.0,-0.13207104618055476,0.00020319124317971923,9.085266112044508,5.418153403701663e-06,-1.7911563187750905,-1.5578608858840329e-07
0.11800000000000001,0.028815434225423372,-2.0639624609274974e-05,0.15930251379852453,-0.00042771798289424677,-0.4635101074926599,3.692013070655904e-06,1.020300915691572,-0.0008898323243259749,3.198202480914981,-0.010380883954774421,-10.935535801429069,-0.0007402809351625144,0.18328371876184657,-25.912694637933495,0.0,0.0,-0.12381699052969476,0.00021133597506462894,8.396582669341283,6.373413571314029e-06,-1.6670132966546467,-2.6523849141386606e-07
0.11900000000000001,0.029866114361559726,-2.15574657318797e-05,0.16251224113228233,-0.0004381879539559989,-0.4745169323797313,2.89882449809816e-06,1.0506801361363542,-0.0009178411226047282,3.2097273337578045,-0.010469971061752128,-11.00682488707141,-0.0007931885725577442,0.1573158690543231,-26.0202709626933,0.0,0.0,-0.11551021176859516,0.00021955742433818107,7.690828827830731,7.390637115737936e-06,-1.5391307361055733,-3.892042927409779e-07
0.12,0.03094744726449913,-2.2503534723794456e-05,0.16573173422097787,-0.0004487423197610021,-0.4855889672567091,2.0514184780579212e-06,1.081332902939406,-0.0009460689919147533,3.219493088695529,-0.010554365805003178,-11.072034876977783,-0.0008474060200402385,0.13124865527209092,-26.111412326610193,0.0,0.0,-0.10720755639542934,0.00022783837152900408,6.970172295812576,8.469405745916332e-06,-1.407883164456096,-5.271620431064554e-07
0.121,0.0320596689324398,-2.3478013644469094e-05,0.16895920888627824,-0.0004593762593599695,-0.4967199952128118,1.1485350047880617e-06,1.1122216679406658,-0.0009744789206746378,3.227474665300391,-0.010633939598967398,-11.13102795610269,-0.0009028834732698594,0.10509854202608353,-26.18606116284526,0.0,0.0,-0.09896546419630006,0.00023616090242021122,6.236831910187459,9.608922996519326e-06,-1.273660168219486,-6.784833228735199e-07
0.122,0.033202976544258536,-2.4481046285748836e-05,0.1721928610327154,-0.000470084837908031,-0.5079036801130227,1.8896821907481252e-07,1.1433076118187404,-0.0010030326412797405,3.233652146437138,-0.010708578548061521,-11.183684900210924,-0.0009595667857132492,0.07888204628831381,-26.244170321593543,0.0,0.0,-0.09083934588773684,0.00024450651330681775,5.493058480166194,1.0808013559143875e-05,-1.136863122686946,-8.424394626342402e-07
0.123,0.034377527364607224,-2.5512737077316234e-05,0.17543087186603673,-0.0004808630216936935,-0.519133585582204,-8.284295056648965e-07,1.1745508203486905,-0.0010316907915673974,3.2380108333213418,-0.010778183785662476,-11.229905469181347,-0.001017397724739709,0.05261572695939748,-26.285703099864907,0.0,0.0,-0.08288303897583799,0.0002528562231060951,4.741115981984186,1.2065126174485023e-05,-0.9979018945706561,-1.01820946163221e-06
0.124,0.035583437833345596,-2.657315016167739e-05,0.17867141312662937,-0.0004917056933835128,-0.5304031942311876,-1.9047437640387453e-06,1.2059104687383744,-0.0010604130843611561,3.2405412605926442,-0.010842671689819249,-11.269608648983622,-0.0010763142583738489,0.026316174409600133,-26.310633264666407,0.0,0.0,-0.0751483572024293,0.0002611906909081147,3.9832633986261143,1.3378340091966112e-05,-0.8571915748552648,-1.2048888933614922e-06
0.125,0.036820782845326375,-2.766230864505381e-05,0.18191265229938156,-0.0005026076673628934,-0.5417059269774721,-3.0409946330910096e-06,1.2373450119807765,-0.0010891584833764185,3.2412391727521874,-0.010901973979380655,-11.302732746284489,-0.0011362508690522643,1.2824471291478598e-16,-26.31894506957162,0.0,0.0,-0.06768474448063869,0.0002694903374751976,3.221737474408501,1.4745375049015433e-05,-0.7151492970721849,-1.401499592922627e-06
0.126,0.03808959522444531,-2.878019402877675e-05,0.18515275776322296,-0.0005135637050591085,-0.5530351623194958,-4.238133523502027e-06,1.2688123791189372,-0.0011178853837229418,3.240105463841396,-0.010956037696215096,-11.329235342023678,-0.0011971388904110172,-0.02631617440959988,-26.310633264666407,0.0,0.0,-0.060539039180279086,0.0002777354691542989,2.4587366234371606,1.6163604672134545e-05,-0.5721911924562426,-1.6069999298215177e-06
0.127,0.03938986539376991,-2.992674582400257e-05,0.1883899038459261,-0.0005245685301400722,-0.5643842554319264,-5.49704038640343e-06,1.3002701693245964,-0.0011465517952258203,3.2371460827031417,-0.011004825080963758,-11.349093112430548,-0.001258906862901403,-0.05261572695939722,-26.285703099864907,0.0,0.0,-0.053755349266201014,0.00028590640265567963,1.6964061945825524,1.7630073157751798e-05,-0.4287295279931884,-1.820295482493211e-06
0.128,0.0407215412415097,-3.1101861350807234e-05,0.19162227575248234,-0.0005356168434913238,-0.5757465569596883,-6.8185212903007305e-06,1.3316758477397959,-0.001175115526804665,3.232371906556219,-0.011048313351251554,-11.362301527762003,-0.0013214809038973004,-0.07888204628831355,-26.244170321593543,0.0,0.0,-0.04737503339535032,0.0002939835891735252,0.936825255026844,1.9141515053447885e-05,-0.28517006642391346,-2.0402499464108386e-06
0.129,0.042084528180628994,-3.230539572100584e-05,0.1948480743384052,-0.0005467033378837565,-0.5871154314001625,-8.20330637821959e-06,1.3629869391192937,-0.001203534370198602,3.225798585922879,-0.011086494392432644,-11.368874440474155,-0.0013847850879188605,-0.10509854202608326,-26.18606116284526,0.0,0.0,-0.04143677791671346,0.0003019477363773105,0.18199501108695204,2.0694377929594814e-05,-0.1419096791212073,-2.26569612541253e-06
0.13,0.043478689398065234,-3.353716200240529e-05,0.19806552070257788,-0.0005578227122554924,-0.5984842749757174,-9.65204821087118e-06,1.394161217436238,-0.0012317662813994515,3.2174463641726896,-0.011119374371735873,-11.36884357555493,-0.001448741832651588,-0.13124865527209068,-26.111412326610196,0.0,0.0,-0.035976755059060506,0.0003097799268835872,-0.566171059586702,2.228484770722346e-05,0.0006657662539501837,-2.495446874853275e-06
0.131,0.04490384628783376,-3.4796931560658694e-05,0.20127286057766086,-0.0005689696855425745,-0.6098465329120379,-1.116532049745217e-05,1.425156889768526,-0.0012597695582534036,3.2073398750829756,-0.011146973287082149,-11.362257936320491,-0.0015132722865809907,-0.15731586905432282,-26.020270962693303,0.0,0.0,-0.03102884368271419,0.0003174617319225982,-1.3058553347317874,2.3908876388941434e-05,0.14218323088719115,-2.7283058842571223e-06
0.132,0.04635982039365594,-3.608443457346725e-05,0.2044683710682377,-0.0005801388900973958,-0.6211955831585333,-1.2743629373494764e-05,1.4559741058221745,-0.0012875030128085565,3.1955104905768312,-0.01116920455482117,-11.349050246495343,-0.0015783088760425936,-0.18328371876184682,-25.91269463793349,0.0,0.0,-0.0037678194661933118,0.0003249753190382731,-2.033921950289275,2.556221192452378e-05,0.28515318953480984,-2.9630782051993717e-06
0.133,0.04784643847735017,-3.739936027075896e-05,0.20765036458723662,-0.0005913248327493395,-0.6325246952512664,-1.4387416547429875e-05,1.4866180836942358,-0.0013149256972917098,3.1819935189989166,-0.011185942651943729,-11.329112092733075,-0.0016437871739351107,-0.2091358025442075,-25.788751299843213,0.0,0.0,0.04836699276733164,0.00033230539572913574,-2.748608831878469,2.7236201631939665e-05,0.4304637910205962,-3.196863557882365e-06
0.134,0.04936350850523471,-3.874135715096249e-05,0.21081719080105166,-0.0006025219504381861,-0.6438270940060321,-1.6097052488590296e-05,1.5170700278845384,-0.0013419968802035334,3.166826213815027,-0.011197117688846583,-11.30239875476564,-0.0017096359411604206,-0.23485579167118953,-25.64851923369133,0.0,0.0,0.11186341044140213,0.000339437812779902,-3.4492595659849816,2.8919557043618537e-05,0.5767399027570672,-3.425861729622472e-06
