time,pos_x,pos_y,pos_z,roll,pitch,yaw,vel_x,vel_y,vel_z,p,q,r,flap_angle,flap_rate,elevator,rudder,force_x,force_y,force_z,moment_x,moment_y,moment_z
0.0,2.4540836319320188e-39,0.0,2.0108711734293314e-06,3.2618900351915154e-08,3.615142814276561e-05,-3.3084231417495076e-09,2.4540836319320187e-36,0.0,0.0020108711734293312,3.261890035191515e-05,0.03615142814276561,-3.3084231417495076e-06,0.0,26.31894506957162,0.0,0.0,1.3571082484584064e-33,0.0,-4.3129182410935805,0.0,0.7805088140907053,0.0
0.001,3.840302039993154e-10,-2.543995926146439e-13,7.38002501206523e-06,9.2220728749202e-08,0.00010220839495339728,-9.354327388705862e-09,3.840302039993154e-07,-2.543995926146439e-10,0.005369153838635898,5.960182839728684e-05,0.06605696681063167,-6.045904246956354e-06,0.026316174409599786,26.310633264666407,0.0,0.0,5.645054897611544e-05,0.0,-3.567799682595776,-5.746283732684411e-09,0.6456601500889058,-2.919049184774117e-10
0.002,1.09083324525213e-09,-1.0934756994372553e-12,1.7463044153282896e-05,1.731344142264967e-07,0.00019188684465553621,-1.7564149714470976e-08,7.068030412528145e-07,-8.390761068226114e-10,0.010083019141217665,8.091368547729471e-05,0.08967844970213892,-8.209822325765115e-06,0.05261572695939737,26.285703099864907,0.0,0.0,-0.0001798474887097379,-1.0212085849362115e-13,-2.818162473364784,-2.1444973169136342e-08,0.5099874761960064,-1.0406524028529696e-09
0.003,1.6432151695340614e-09,-2.815158018685334e-12,3.361996438962368e-05,2.6967000121330424e-07,0.00029888232722811964,-2.7362761021249898e-08,5.523819242819313e-07,-1.7216823192480785e-09,0.016156920236340785,9.653558698680756e-05,0.10699548257258343,-9.798611306778921e-06,0.07888204628831348,26.244170321593543,0.0,0.0,-0.0006263286441989425,-6.248916365534267e-13,-2.0660626295742928,-4.5043571007055025e-08,0.37387449086012814,-2.0732780164531496e-09
0.004,1.2294742165868804e-09,-5.622623637536081e-12,5.721158617949424e-05,3.7613454004010947e-07,0.0004168874302703598,-3.8174608157942306e-08,-4.13740952947181e-07,-2.8074656188507475e-09,0.023591621789870558,0.00010646453882680523,0.1180051030422402,-1.0811847136692407e-05,0.10509854202608344,26.18606116284526,0.0,0.0,-0.0011997008653078516,-2.0484680070030222e-12,-1.3135398312752946,-7.455628579887003e-08,0.23769754779388938,-3.2261764540641313e-09
0.005,-1.1642651661351511e-09,-9.608389198241012e-12,8.95958145713586e-05,4.868476547310386e-07,0.0005396088749808972,-4.9424946766057825e-08,-2.3937393827220316e-06,-3.985765560704931e-09,0.03238422839186437,0.00011071311469092906,0.12272144471053734,-1.1250338608115521e-05,0.13124865527209065,26.111412326610196,0.0,0.0,-0.0018170099298143933,-4.8724724151256655e-12,-0.5626180506845864,-1.0811000063637128e-07,0.10182574893985195,-4.348015947520296e-09
0.006,-6.5726379917720245e-09,-1.4784946139207484e-11,0.0001321240493192433,5.961567013700857e-07,0.0006607841809732666,-6.054115791402355e-08,-5.408372825636873e-06,-5.1765569409664706e-09,0.0425282347478847,0.00010930904663904718,0.12117530599236943,-1.1116211147965725e-05,0.15731586905432304,26.020270962693303,0.0,0.0,-0.0023966781963493805,-9.49160379565174e-12,0.18470646714006864,-1.439539118134036e-07,-0.03338111257711243,-5.3006883245300945e-09
0.007,-1.582298170250613e-08,-2.1161364711357446e-11,0.0001861376446034724,6.984514449382691e-07,0.0007741978204930755,-7.095414125203478e-08,-9.250343710734107e-06,-6.376418572149963e-09,0.054013595284229096,0.00010229474356818339,0.11341363951980883,-1.0412983338011237e-05,0.18328371876184676,25.91269463793349,0.0,0.0,-0.002859502927444886,-1.618548515481508e-11,0.9264759233729689,-1.8046755530603703e-07,-0.16757426744173357,-5.9601197018063625e-09
0.008,-2.9263644328596766e-08,-2.8864695947153008e-11,0.00025296445885822843,7.881781823003073e-07,0.0008736967820352246,-8.009977574830854e-08,-1.3440662626090635e-05,-7.703331235795564e-09,0.06682681425475603,8.972673736203817e-05,0.0994989615421491,-9.145634496273762e-06,0.20913580254420727,25.788751299843213,0.0,0.0,-0.0031296041539790077,-2.5318715385039264e-11,1.6607822966663686,-2.1616721416932214e-07,-0.3004176973831952,-6.216931763179489e-09
0.009000000000000001,-4.645218327095552e-08,-3.830443677479958e-11,0.000333915510837055,8.598532611401155e-07,0.0009532054875802286,-8.7420439746489e-08,-1.7188538942358747e-05,-9.439740827646575e-09,0.08095105197882657,7.167507883980824e-05,0.079508705545004,-7.320663998180462e-06,0.23485579167118953,25.64851923369133,0.0,0.0,-0.003135312045819425,-3.784123460731005e-11,2.385776271506245,-2.4971072094282713e-07,-0.4315893394849176,-5.976945300604879e-09
0.01,-6.580743987752114e-08,-5.037779992041779e-11,0.00043028175908949555,9.080759435655674e-07,0.0010067400062115906,-9.236658051890874e-08,-1.9355256606565613e-05,-1.2073363145618203e-08,0.09636624825244056,4.8222682425451896e-05,0.05353451863136206,-4.946140772419731e-06,0.26042744084639413,25.492087013056477,0.0,0.0,-0.0028099858453007,-5.616982239239196e-11,3.099676759608664,-2.799007124681264e-07,-0.5607823219531114,-5.161521434520868e-09
0.011,-8.422987004902812e-08,-6.671305407313847e-11,0.0005433310202128107,9.275405733326489e-07,0.001028421517987461,-9.439832319589751e-08,-1.842243017150698e-05,-1.6335254152720674e-08,0.11304926112331509,1.9464629767081527e-05,0.02168151177587032,-2.031742676988778e-06,0.28583459846811454,25.319553443882082,0.0,0.0,-0.002092756966539171,-8.551926206422982e-11,3.800779439751999,-3.0568640030828113e-07,-0.6877059599930948,-3.7077368267476325e-09
0.012,-9.669483735673434e-08,-8.994777670182918e-11,0.0006743050399663241,9.130480129856423e-07,0.0010124889898926377,-9.298710850386154e-08,-1.2464967307706226e-05,-2.3234722628690703e-08,0.1309740197535135,-1.449256034700652e-05,-0.015932528094823373,1.4112146920359664e-06,0.3110612168310354,25.131027502068406,0.0,0.0,-0.0009291901740916616,-1.3573691025358724e-10,4.487464612225107,-3.2616394500975567e-07,-0.8120865799841381,-1.5683918709997467e-09
0.013000000000000001,-9.582384662181842e-08,-1.240384963803873e-10,0.0008244165443507058,8.595152979250167e-07,0.0009533111026828091,-8.761729834620807e-08,8.709907349159258e-07,-3.4090719678558124e-08,0.15011150438438164,-5.353271506062558e-05,-0.05917788720982857,5.369810157653463e-06,0.3360913622623062,24.92662826464106,0.0,0.0,0.0007281326114103281,-2.2367767935821967e-10,5.15810167168733,-3.596938357547728e-07,-0.9336666815138662,1.2881473681051823e-09
0.014,-7.143907646225809e-08,-1.7459803079776882e-10,0.0009948464852749246,7.619848234812693e-07,0.0008453974229156466,-7.778780813228184e-08,2.4384770159560328e-05,-5.055953441738151e-08,0.17042994092421884,-9.753047444374741e-05,-0.10791367976716246,9.829490213926235e-06,0.3609092251855914,24.706484834539374,0.0,0.0,0.0029190200387189547,-3.7613792334830143e-10,5.811167900130067,-4.2071833573865833e-07,-1.0522050605785085,4.878259164988205e-09
0.015,-1.0106364132855445e-08,-2.4925645598979093e-10,0.0011867418739618927,6.156346740765408e-07,0.0006834084423605743,-6.301382255736401e-08,6.133271232940265e-05,-7.465842519202214e-08,0.1918953886869681,-0.00014635014940472842,-0.16198898055507227,1.4773985574917831e-05,0.3854991301067376,24.470736259072222,0.0,0.0,0.005675368421753258,-6.333500056954494e-10,6.445466006586594,-4.85539724633524e-07,-1.1674849664867872,9.203517705231157e-09
0.016,1.0532814544509008e-07,-3.5804119722250747e-10,0.0014012135779281466,4.1578694526893066e-07,0.0004621648668581069,-4.28284384598935e-08,0.00011543450957794552,-1.0878474123271655e-07,0.21447170396625384,-0.00019984772880761017,-0.22124357550246743,2.0185384097470508e-05,0.40984554551475144,24.219531442092755,0.0,0.0,0.009020880278734638,-1.0530200043580723e-09,7.0597791104795675,-5.536811092377318e-07,-1.2793058528995305,1.4251357478690553e-08
0.017,2.9620240721231793e-07,-5.137720193756834e-10,0.0016393343235263614,1.5791526586319863e-07,0.00017665602267793106,-1.6784280680863926e-08,0.00019087426176722785,-1.5573082215317603e-07,0.2381207455982147,-0.00025787167940573204,-0.2855088441801758,2.6044157779029574e-05,0.4339330936918346,23.95302904994756,0.0,0.0,0.012970851893857289,-1.7148656767876657e-09,7.653004725005922,-6.246155074320947e-07,-1.3874862266670673,1.999584708518496e-08
0.018000000000000002,5.884988312587843e-07,-7.324665013141925e-10,0.0019021369097961308,-1.6234848178597983e-07,-0.00017795262203665937,1.5544920234047253e-08,0.0002922964240464663,-2.18694481938509e-07,0.2628025862697694,-0.00032026374764917845,-0.3546086447145904,3.2329200914911175e-05,0.45774656042628037,23.671397411259562,0.0,0.0,0.017532084085906775,-2.725606262066721e-09,8.224158112489171,-6.977745564090397e-07,-1.4918636999127037,2.639860810654355e-08
0.019,1.013295668795023e-06,-1.033751588043437e-09,0.002190612638476557,-5.492082438710723e-07,-0.0006063128216373675,5.456279960571126e-08,0.0004247968375362388,-3.012850867292446e-07,0.28847572868042615,-0.0003868597620850924,-0.42836019960070815,3.9017879371664004e-05,0.4812709046220957,23.374814410608085,0.0,0.0,0.022702895050160543,-4.224333640727716e-09,8.772375157941852,-7.725577295791352e-07,-1.5922950094505905,3.340986160844835e-08
0.02,1.6072047676723367e-06,-1.4412768828022114e-09,0.002505709963396308,-1.0066986762201942e-06,-0.0011128877995239279,1.0064889011737684e-07,0.0005939090988773137,-4.075252947587744e-07,0.315097324919751,-0.00045749043234912174,-0.5065749778865603,4.608609051166557e-05,0.50449126779928,23.06346737617312,0.0,0.0,0.02847323398537315,-6.388182775471818e-09,9.29691434478551,-8.483418830628147e-07,-1.6886559384441133,4.096959018706037e-08
0.021,2.4127913490360233e-06,-1.9831254646428725e-09,0.002848333361021939,-1.5386808181317147e-06,-0.0017019473700206332,1.5415722340299618e-07,0.0008055865813636864,-5.41848581840661e-07,0.3426233976256309,-0.0005319821419115207,-0.5890595704967053,5.3508333285619355e-05,0.5273929834787591,22.73755296141484,0.0,0.0,0.03482489250662334,-9.438208865708543e-09,9.797157941194401,-9.244909444890873e-07,-1.7808411682783605,4.900880141987376e-08
0.022,3.4789718200405258e-06,-2.692218191563768e-09,0.0032193424229428557,-2.148838551911475e-06,-0.0023775639277496133,2.154150114923556e-07,0.0010661804710045024,-7.090927269208957e-07,0.37100906192091676,-0.0006101577337797604,-0.6756165577289799,6.125778808935941e-05,0.5499615864460481,22.39727702086306,0.0,0.0,0.0417318098062403,-1.364537099118483e-08,10.272612632233095,-1.0003655540796052e-06,-1.8687641095808765,5.7450876853101246e-08
0.023,4.861386045377932e-06,-3.60670767117722e-09,0.0036195511697782057,-2.840675839197113e-06,-0.003143609294528108,2.8472141724715127e-07,0.001382414225337406,-9.14489479613452e-07,0.40020874683534996,-0.0006918372872856377,-0.7660453667784948,6.930640575479567e-05,0.5721828218877913,22.04285448009511,0.0,0.0,0.049160466386562546,-1.933651739723374e-08,10.722909433012413,-1.0753324699331557e-06,-1.9523566869100253,6.621298899450454e-08
0.024,6.622740944723761e-06,-4.770358345099504e-09,0.0040497275848110975,-3.6175147238076445e-06,-0.004003752412265508,3.623464222387976e-07,0.001761354899345829,-1.1636506739222839e-06,0.43017641503289167,-0.0007768388846105315,-0.8601431177374004,7.762500499164635e-05,0.5940426543954067,21.674509199984207,0.0,0.0,0.05707035993518537,-2.6900266070007602e-08,11.147802941510037,-1.1487735565449976e-06,-2.0315690899470353,7.520756688725404e-08
0.025,8.833122756645206e-06,-6.232909434780037e-09,0.004510593364513795,-4.48249408963517e-06,-0.00496145786893628,4.4852979975270664e-07,0.002210381811921444,-1.4625510896805326e-06,0.4608657797026979,-0.000864979365827525,-0.9577054566707723,8.618337751390903e-05,0.6155272768301522,21.292473835304172,0.0,0.0,0.06541455586243733,-3.6792675849181026e-08,11.547169948348518,-1.2200941874798481e-06,-2.1063694944696194,8.434378920690191e-08
0.026000000000000002,1.1570275804366715e-05,-8.050417830057831e-09,0.005002823882024653,-5.438569160920432e-06,-0.006019985243370217,5.434801997585844e-07,0.0027371530477215086,-1.817508395277794e-06,0.4922305175108572,-0.0009560750712852617,-1.0585273744339356,9.495040000587776e-05,0.6366231190440095,20.896989687779648,0.0,0.0,0.07414030405990205,-4.954260792917717e-08,11.921007421523377,-1.2887309094156247e-06,-2.17674375450983,9.35290823537301e-08
0.027,1.4919846107384348e-05,-1.0285578361876048e-08,0.005527048358574382,-6.4885117310530735e-06,-0.007182389253252004,6.473743517664837e-07,0.0033495703030176323,-2.235160531818216e-06,0.5242244765497285,-0.0010499425701326422,-1.1624040098817878,0.00010389415200789929,0.6573168564508803,20.488306553674786,0.0,0.0,0.08318971261688157,-6.575668501900948e-08,12.269429884915043,-1.3541582349942898e-06,-2.242695065377582,1.0267059983144484e-07
0.028,1.8975588697733465e-05,-1.3008019281713648e-08,0.0060838502368368965,-7.634911104748376e-06,-0.008451520689288146,7.603563904996194e-07,0.004055742590349116,-2.7224409198376007e-06,0.556801878262515,-0.0011463993736953026,-1.269131436036142,0.00011298203873313574,0.6775954184426818,20.066682566016553,0.0,0.0,0.09250046857094693,-8.612376540004153e-08,12.592666210476576,-1.4158944554341545e-06,-2.3042435957245053,1.1167665841323613e-07
0.029,2.3839538013446907e-05,-1.6294571166761233e-08,0.006673767749199857,-8.880175737024093e-06,-0.009830028116923125,8.825373082642913e-07,0.004863949315713441,-3.286551885047584e-06,0.5899175123629605,-0.0012452646322757177,-1.378507427634979,0.00012218091776467185,0.6974459966450214,19.632384031552384,0.0,0.0,0.10200659528639094,-1.1141886130854972e-07,12.891055845316078,-1.4735063899409233e-06,-2.3614260855796845,1.2045810630058208e-07
0.03,2.9622141247417464e-05,-2.022950787602917e-08,0.007297294673014047,-1.0226535550795805e-05,-0.011320360325224847,1.0139945367930632e-06,0.0057826032339705555,-3.934936709267935e-06,0.6235269238141897,-0.0013463598137717122,-1.4903322083017212,0.00013145722852877202,0.7168560530072406,19.18568526254515,0.0,0.0,0.111639235761545,-1.4250644508955737e-07,13.16504449651834,-1.526613016774558e-06,-2.414295406346215,1.2892959877429018e-07
0.031,3.644235502092112e-05,-2.4904758592838554e-08,0.007954881263991272,-1.1676044913102745e-05,-0.012924769500582993,1.1547716601894515e-06,0.006820213773503656,-4.675250716809384e-06,0.6575865909772256,-0.0014495093623069402,-1.6044091753581458,0.00014077712339638816,0.7358133277217181,18.726868403511627,0.0,0.0,0.12132745106640694,-1.8034310199201096e-07,13.415179298478717,-1.5748879594877493e-06,-2.462920078127655,1.3701075780074824e-07
0.032,4.442770622134619e-05,-3.042009039802971e-08,0.008646935358080353,-1.3230586247958304e-05,-0.014645315100659672,1.3048782594219863e-06,0.007985351200425064,-5.515331805191152e-06,0.6920540940890814,-0.0015545413348555582,-1.7205456000766794,0.00015010659923253477,0.7543058469674252,18.256223253013978,0.0,0.0,0.13099902320154888,-2.259795048470227e-07,13.642103489736456,-1.618060830411107e-06,-2.5073837394647205,1.4462719374457502e-07
0.033,5.3714318287589814e-05,-3.68832612204178e-08,0.009373823631363342,-1.4891874261593862e-05,-0.016483868401601275,1.4642898876151437e-06,0.009286612066243628,-6.4631708223880915e-06,0.7268882732829891,-0.0016612880136355579,-1.8385533009416017,0.00015941162819315728,0.7723219304728487,17.774047080616793,0.0,0.0,0.14058125193421908,-2.805617027205707e-07,13.846550628756804,-1.655917460976578e-06,-2.5477845645979347,1.517113697749707e-07
0.034,6.44469046390368e-05,-4.441014340144541e-08,0.010135873006783007,-1.666146075344756e-05,-0.01844211768887937,1.6329481741778461e-06,0.010732586351446992,-7.526882181027612e-06,0.7620493754196656,-0.001769586491853698,-1.9582492872780966,0.00016865828656270244,0.7898501988935005,17.28064443912523,0.0,0.0,0.1500017355838218,-3.453317324894484e-07,14.029338380765598,-1.6882990740338604e-06,-2.584234623709951,1.5820329272143506e-07
0.035,7.677873132046351e-05,-5.312481848482294e-08,0.010933372195841817,-1.8540739983668347e-05,-0.020521574059304902,1.8107610546114109e-06,0.012331826681426709,-8.714675083377532e-06,0.7974991890588101,-0.001879279230220787,-2.079456370425532,0.00017781288043356477,0.806879580999356,16.776326972222947,0.0,0.0,0.15918912626016743,-4.216275786972032e-07,14.191361910518156,-1.715100476089143e-06,-2.6168591822058964,1.6405101797625322e-07
0.036000000000000004,9.087155127155207e-05,-6.315964419474134e-08,0.01176657336280626,-2.0530954565196447e-05,-0.02272357779879171,1.997603121662805e-06,0.014092819951088558,-1.0034825709918395e-05,0.833201166964442,-0.001990214581528101,-2.202003739486808,0.00018684206705139408,0.8233993206676795,16.261413217631283,0.0,0.0,0.16807385065289276,-5.108825225737431e-07,14.333586918707931,-1.7362673666598672e-06,-2.6457959359111682,1.692109604525714e-07
0.037,0.00010689551292233308,-7.46552948939053e-08,0.01263569389841252,-2.2633201845686573e-05,-0.025049305297377856,2.1933160923507633e-06,0.01602396165078102,-1.1495650699163962e-05,0.8691205356062607,-0.002102247280490124,-2.325727498586145,0.00019571297068795846,0.8393989836768221,15.736228405913991,0.0,0.0,0.1765887880595475,-6.146239353535612e-07,14.457042362507494,-1.7517928771223463e-06,-2.671194180039276,1.7364800844161873e-07
0.038,0.0001250290460614966,-8.776077711151902e-08,0.013540918289604381,-2.4848440741704892e-05,-0.027499776459894515,2.3977093843062033e-06,0.018133533139163528,-1.3105482217613719e-05,0.9052243911918615,-0.002215238896018318,-2.4504711625166595,0.0002043932919554402,0.8548684642967004,15.201104255054641,0.0,0.0,0.18466989782902954,-7.344715836551699e-07,14.562812903402243,-1.7617134621391892e-06,-2.6932139108279123,1.773354422877298e-07
0.039,0.0001454587281199573,-1.0263342199828057e-07,0.014482400071445545,-2.717749898479882e-05,-0.030075862567549873,2.610560793847932e-06,0.020429682058460685,-1.4872644886761555e-05,0.9414817818411633,-0.0023290582430939284,-2.576086107655357,0.00021285140954172878,0.869797991671791,14.656378760936454,0.0,0.0,0.19225678865934676,-8.721355253950507e-07,14.652031127950911,-1.766104272796046e-06,-2.712024859763123,1.802546649058253e-07
0.04,0.0001683791341540257,-1.194388567977242e-07,0.01546026384704003,-2.962108073624746e-05,-0.032778294542610074,2.831617267271816e-06,0.02292040603406841,-1.6805434799443617e-05,0.9778637755944857,-0.0024435817514486388,-2.7024319750602017,0.000221056473423884,0.8841781359926135,14.102395983856823,0.0,0.0,0.19929322205125966,-1.0294136832703943e-06,14.725869589319739,-1.7650741419618622e-06,-2.7278054611910663,1.82394756080813e-07
0.041,0.00019399267389716757,-1.3835095761872323e-07,0.01647460736106901,-3.2179774524575245e-05,-0.03560767156533844,3.060595755975999e-06,0.025613539743141872,-1.891210082099905e-05,1.01434351402898,-0.0025586937883277853,-2.829377022728371,0.00022897848870418296,0.8979998144517994,13.539505831211502,0.0,0.0,0.20572754144468097,-1.208189189087511e-06,14.785532719340916,-1.7587603093171754e-06,-2.7407417547087194,1.8375186699363702e-07
0.042,0.00022250941927162333,-1.595517859509745e-07,0.017525503612413142,-3.4854061457256915e-05,-0.0385644699894032,3.297184145282927e-06,0.02851674537445576,-2.120082833225125e-05,1.050896251344132,-0.0026742869326816725,-2.9567984240647567,0.00023658838930692804,0.9112542969809881,12.96806383648554,0.0,0.0,0.2115130168235638,-1.4104275960337278e-06,14.832248662411464,-1.747323006347721e-06,-2.751026223843832,1.843284753180398e-07
0.043000000000000003,0.00025414692570410876,-1.8323151148265773e-07,0.018613002991278552,-3.764432365543308e-05,-0.041649052499055435,3.5410422461532983e-06,0.031637506432485404,-2.367972553168323e-05,1.087499378865411,-0.002790262198176164,-3.084582509652231,0.0002438581008703714,0.9239332117649259,12.388430934690753,0.0,0.0,0.216608091409263,-1.6381740573506164e-06,14.867261083776697,-1.7309400108875792e-06,-2.7588565719409073,1.841325243690958e-07
0.044,0.00028913005046321707,-2.0958832385647516e-07,0.01973713542628405,-4.055085285782384e-05,-0.044861677448437956,3.791802838414669e-06,0.03498312475910828,-2.6356812373817433e-05,1.124132435005498,-0.0029065292023907627,-3.2126249493825227,0.0002507605922613707,0.9360285505292827,11.800973234391426,0.0,0.0,0.22097651183586675,-1.893550568786423e-06,14.89182100566427,-1.7098012671163967e-06,-2.764434434547605,1.8317647205927056e-07
0.045,0.00032769077101491126,-2.3882833603654886e-07,0.020897912527098734,-4.3573859137243814e-05,-0.04820250832026964,4.049072753638516e-06,0.03856072055169421,-2.9240012180073727e-05,1.1607771008146857,-0.0030230062794199698,-3.3408308718316864,0.0002572699152238467,0.9475326735988511,11.206061786462266,0.0,0.0,0.22458731504079185,-2.1787533687601037e-06,14.907178725427208,-1.6841036508988561e-06,-2.767964024526356,1.814762768003531e-07
0.046,0.00037006800605442506,-2.7116548195404585e-07,0.022095329708444838,-4.671347966997191e-05,-0.0516716232376244,4.3124339853754596e-06,0.04237723503951378,-3.233714591749696e-05,1.1974171813461034,-0.0031396205327280974,-3.469114917354756,0.00026336123173694397,0.9584383147229273,10.604072349724778,0.0,0.0,0.22741463284282265,-2.496050584477114e-06,14.914575870445196,-1.654045942592421e-06,-2.7696507010525746,1.7905034802947653e-07
0.047,0.00041650744138576283,-3.0682141105380774e-07,0.02332936828160268,-4.9969787494388596e-05,-0.05526902445823079,4.581444814069339e-06,0.04643943533133779,-3.5655929099761885e-05,1.234038573157841,-0.0032563078244166855,-3.5974012206063852,0.0002690108286938797,0.968738585664833,9.995385153609876,0.0,0.0,0.2294372573350443,-2.8477802044485783e-06,14.915237645220792,-1.619824050419599e-06,-2.7696994459227198,1.759184888678467e-07
0.048,0.0004672613621382321,-3.4602538227737477e-07,0.0245999974999766,-5.334280019029158e-05,-0.05899464777513966,4.85564093357363e-06,0.05075392075246929,-3.9203971223567015e-05,1.2706292183739232,-0.0033730126959029883,-3.725623316908868,0.0002741961195042912,0.9784269805526709,9.380384657996869,0.0,0.0,0.23063788509520092,-3.236348448147459e-06,14.910365327180298,-1.5816265074655138e-06,-2.768313219420272,1.7210085775698945e-07
0.049,0.0005225884918710615,-3.890141598887429e-07,0.025907176545807955,-5.683248840349863e-05,-0.06284837174003723,5.134536565730082e-06,0.05532712973282933,-4.298877761136811e-05,1.3071790458313537,-0.0034896882132070435,-3.8537239648975725,0.0002788956321564525,0.9874973799885749,8.759459310380333,0.0,0.0,0.231001924327305,-3.6642285920513035e-06,14.901129069559396,-1.5396302442288127e-06,-2.7656911527463217,1.6761697504858605e-07
0.05,0.000582753837843144,-4.36031913376137e-07,0.027250856445762184,-6.043878413093523e-05,-0.06683002661502982,5.417625548868011e-06,0.06016534597208248,-4.701775348739415e-05,1.3436798999542297,-0.003606295727436603,-3.9816548749925973,0.00028308898313792884,0.9959440549138519,8.133001300518364,0.0,0.0,0.2305157063172441,-4.133960298208928e-06,14.888661073000028,-1.493996615744788e-06,-2.7620265148091083,1.6248479979547056e-07
0.051000000000000004,0.0006480285400263154,-4.873301234427047e-07,0.028630981903885227,-6.416158866850513e-05,-0.07093940294442391,5.7043823852702365e-06,0.06527470218317133,-5.1298210066567686e-05,1.3801254581230409,-0.0037228045375698976,-4.1093763293940935,0.00028675683640222514,1.0037616702275778,7.501406312717118,0.0,0.0,0.22916389520768668,-4.648149476814914e-06,14.874049192906961,-1.4448676359415997e-06,-2.75750437022144,1.5671990177119997e-07
0.052000000000000005,0.0007186897192446928,-5.431674958261482e-07,0.030047493041339867,-6.80007801070103e-05,-0.07517625961916845,5.994263231586529e-06,0.07066117921837739,-5.583737238344341e-05,1.4165111374546395,-0.0038391914385051584,-4.2368566747445415,0.00028988084631629304,1.0109452881563628,6.865073275908113,0.0,0.0,0.22692585287170997,-5.209468698097081e-06,14.85833105829591,-1.3923623386775416e-06,-2.7522988301821236,1.5033475436509117e-07
0.053,0.0007950203171426021,-6.038098843548941e-07,0.031500327033425514,-7.195622024062345e-05,-0.07954033128366836,6.286706814928898e-06,0.07633059789790933,-6.0642388528745946e-05,1.4528339920856468,-0.003955440133613168,-4.364071664499912,0.00029244358334236864,1.0174903713731531,6.2244041116761935,0.0,0.0,0.2237707269624522,-5.820658151061967e-06,14.842488791224534,-1.3365731383692947e-06,-2.7465698076929623,1.4333817564799284e-07
0.054,0.0008773089177761512,-6.695302242489245e-07,0.032989419635697174,-7.602776073115165e-05,-0.08403133491121462,6.581135256317109e-06,0.08228860063354913,-6.572033989403043e-05,1.4890926022716597,-0.004071540490528203,-4.491003627546265,0.0002944284413882115,1.0233927858631062,5.5798034803971905,0.0,0.0,0.21965117646917115,-6.4845271272339185e-06,14.827444435630133,-1.277561991434399e-06,-2.740459266200227,1.3573494745277123e-07
0.055,0.0009658495383105771,-7.40608476203331e-07,0.0345147065925878,-8.021524835925116e-05,-0.08864897536106109,6.8769547832626424e-06,0.08854062053442589,-7.107825195440652e-05,1.5252869568906202,-0.004187487628099507,-4.617640449846473,0.0002958195269455335,1.028648803534721,4.931678525645808,0.0,0.0,0.2144961056116895,-7.2039559865958235e-06,14.814056232170495,-1.2153560421473863e-06,-2.7340871829176927,1.2752564505581292e-07
0.056,0.001060941376559593,-8.173315812637515e-07,0.03607612492387039,-8.451852921352305e-05,-0.09339294975234001,7.173556316855392e-06,0.0950918382490158,-7.672310506042055e-05,1.5614183312825956,-0.004303280854271888,-4.743974391278927,0.0002966015335927498,1.0332551045745821,4.2804386170349895,0.0,0.0,0.20820386048072387,-7.98189854137297e-06,14.803115912106465,-1.1499422384486936e-06,-2.7275479906240423,1.1870671140831001e-07
0.057,0.0011628885099402922,-8.999934259662583e-07,0.03767361408663796,-8.893745176542111e-05,-0.09826295059785403,7.47031593019167e-06,0.10194713338069931,-8.26618447025067e-05,1.5974891627675731,-0.004418922551898059,-4.87000084551402,0.0002967596133362784,1.037208779544224,3.6264950916492924,0.0,0.0,0.20063953297080928,-8.821384773951784e-06,14.795347225427735,-1.081260073124878e-06,-2.720909347849132,1.0927080738359864e-07
0.058,0.0012719995608126476,-9.888948168056296e-07,0.03930711701325424,-9.347186902960534e-05,-0.10325866792013576,7.76659520175729e-06,0.10911105087235537,-8.89013908393712e-05,1.6335029266162775,-0.004534417264184236,-4.995717322281726,0.00029627927156561975,1.040507331217795,2.9702609942355953,0.0,0.0,0.19164379226569808,-9.725523795340303e-06,14.791405954105748,-1.0091910817165549e-06,-2.7142169402947713,9.920746093624042e-08
0.059000000000000004,0.0013885873867145009,-1.0843434631046528e-06,0.040976581028832997,-9.812164051890716e-05,-0.10837979113722057,8.061741538922886e-06,0.11658782590185317,-9.544864629902313e-05,1.6694640155787557,-0.004649771489301825,-5.1211232170848096,0.00029514633716559507,1.043148676159359,2.3121508163151474,0.0,0.0,0.18106579291654631,-1.0697506965782225e-05,14.791881658243126,-9.335429785928161e-07,-2.707511481774387,8.850402559120512e-08
0.06,0.0015129689280663744,-1.1866539682967543e-06,0.04268195865484923,-0.00010288663553952989,-0.11362601243266442,8.355088628236878e-06,0.1243815413518734,-0.0001023105051921016,1.7053776260162337,-0.004764995020622716,-5.246221295443843,0.00029334708931399176,1.0451311460388377,1.6525802343818667,0.0,0.0,0.16883647924096853,-1.1740611168047096e-05,14.797301292207221,-8.540254512207766e-07,-2.7008657309302078,7.714695907750057e-08
0.061,0.0016454654416722067,-1.29614783221849e-06,0.04442320830757905,-0.00010776674040536957,-0.11899703446881645,8.645957264986984e-06,0.13249651360583237,-0.00010949386392173572,1.7412496527298214,-0.004880104865839677,-5.371022036152033,0.00029086863675010697,1.0464534886857644,0.9919658473521313,0.0,0.0,0.15509329341446634,-1.285820238798106e-05,14.808134492758722,-7.702141490075091e-07,-2.6944462172140895,6.512349387729509e-08
0.062,0.0017864034182475306,-1.413153471819423e-06,0.046200294899666025,-0.00011276187279766029,-0.12449258601784445,8.933656863293962e-06,0.14093797657532384,-0.00011700563960093302,1.7770865920869747,-0.004995132392290719,-5.495551549028002,0.00028769959830697936,1.047114868880181,0.3307249134320079,0.0,0.0,0.1403406593448927,-1.4053740051030135e-05,14.824799648276452,-6.815004010082573e-07,-2.6885904142468626,5.24239790133716e-08
0.063,0.0019370855481791972,-1.5380062743164973e-06,0.04801260869148948,-0.0001178776163362711,-0.13011866645035622,9.218056911389525e-06,0.15068212993166663,-0.00012485280249707436,1.812313791823458,-0.005115743538610816,-5.626080432511756,0.00028440004809556207,1.047114868880181,-0.3307249134320046,0.0,0.0,0.661499983860641,-1.533078295631814e-05,14.526012572893409,-5.870281371284198e-07,-2.818116741635537,3.9045601125063534e-08
0.064,0.002097731181005243,-1.6710561972238981e-06,0.04986023150689676,-0.0001231131858964094,-0.13587420353357157,9.498330202678176e-06,0.16064563282604616,-0.00013304992290740078,1.8476228154072794,-0.005235569560138285,-5.755537083215353,0.0002802732912886512,1.0464534886857644,-0.9919658473521282,0.0,0.0,0.5752001825456892,-1.668841290602242e-05,14.615625689214506,-4.555963495207594e-07,-2.7949672537113415,2.2469760007958554e-08
0.065,0.002268599173749509,-1.8126595918912452e-06,0.051743246103789615,-0.00012846821167496238,-0.14175857553364427,9.77368035007967e-06,0.17086799274426617,-0.00014160339466734716,1.8830145968928582,-0.0053550257785529645,-5.8843720000726805,0.0002753501474014934,1.0451311460388377,-1.6525802343818634,0.0,0.0,0.5071710542735088,-1.8136386662670835e-05,14.708030425682512,-3.2371095345297934e-07,-2.7815440314556428,6.241177688692804e-09
0.066,0.0024500052949611773,-1.963179940162161e-06,0.053661739032295847,-0.00013394293599084983,-0.14777181976638146,1.0043359041199493e-05,0.18140612121166816,-0.00015052034827091562,1.918492928506233,-0.005474724315887445,-6.013244232737199,0.0002696786911198225,1.043148676159359,-2.3121508163151496,0.0,0.0,0.46660414868599887,-1.967865604624025e-05,14.805019259931,-3.3146299027664236e-07,-2.782349681789149,-9.693664138725821e-09
0.067,0.002642333724972585,-2.1229890451127805e-06,0.055615803807701154,-0.00013953831519389735,-0.15391474816673628,1.0306672694616323e-05,0.19232843001140795,-0.00015980910495061982,1.954064775405306,-0.005595379203047519,-6.142928400354824,0.0002633136534168298,1.040507331217795,-2.970260994235598,0.0,0.0,0.4591635102156896,-2.1319434943592292e-05,14.908659045685683,-4.2118155833942966e-07,-2.7998793484559767,-2.526944979156126e-08
0.068,0.0028460408574587925,-2.2924685250760976e-06,0.05760554368530466,-0.00014525602558607836,-0.16018895850574788,1.0562978407789938e-05,0.20370713248620737,-0.0001694794799633171,1.9897398776035093,-0.005717710392181006,-6.274210339011611,0.0002563057131736153,1.037208779544224,-3.6264950916492946,0.0,0.0,0.4860713561263434,-2.3063294741224085e-05,15.020880181379544,-4.99144153925827e-07,-2.834375205129897,-4.0234443774799507e-08
0.069,0.0030616524525531896,-2.4720114340596218e-06,0.05963107349724834,-0.00015109840246845316,-0.16659676551706226,1.0811672382896806e-05,0.21561159509439717,-0.0001795429089835243,2.025529811943678,-0.005842376882374811,-6.407807011314381,0.00024869397510686735,1.0332551045745821,-4.280438617034986,0.0,0.0,0.5447922229982057,-2.491523492674586e-05,15.143148859570138,-5.636378668648515e-07,-2.8843502744004503,-5.40995170889849e-08
0.07,0.0032897567899522278,-2.66202386801728e-06,0.06169252081421086,-0.00015706833928869667,-0.17314108773467451,1.105217433512019e-05,0.22810433739903815,-0.0001900124339576582,2.0614473169625174,-0.005969936820243517,-6.544322217612262,0.00024050195222338443,1.028648803534721,-4.931678525645811,0.0,0.0,0.6305875866109473,-2.6880722821155246e-05,15.276583432112709,-6.125632207731079e-07,-2.947361384768734,-6.61156376745494e-08
0.07100000000000001,0.003530996501157192,-2.862926460274853e-06,0.06379002643607572,-0.00016316917821681518,-0.17982532478643606,1.1283911389100716e-05,0.241239711204964,-0.00020090259225757266,2.097505621864854,-0.006100838928118513,-6.684237051761547,0.00023173705398052606,1.023392785863106,-5.579803480397193,0.0,0.0,0.7380552905811988,-2.8965715052974264e-05,15.421936125590554,-6.438888669738617e-07,-3.0207593048377674,-7.52978394629642e-08
0.07200000000000001,0.0037860609140703922,-3.0751557274851926e-06,0.0659237442474048,-0.00016940461145368725,-0.18665324653197662,1.1506303544845541e-05,0.25506441291320037,-0.00021222926721033966,2.1337178113290802,-0.006235433236872067,-6.827921745540572,0.00022239215574482575,1.0174903713731531,-6.224404111676196,0.0,0.0,0.8621663578693249,-3.1176663575067833e-05,15.579603180926338,-6.561330493107471e-07,-3.1021505239584672,-8.052669883507162e-08
0.073,0.004055679782524686,-3.2991652672822225e-06,0.06809384048860155,-0.00017577860082327202,-0.19362890239567254,1.1718751459747452e-05,0.2696188684542935,-0.00022400953979703008,2.1700962411967577,-0.0063739893695847795,-6.9756558636959145,0.0002124479149019105,1.0109452881563628,-6.86507327590811,0.0,0.0,0.9987467391095592,-3.35205141735502e-05,15.749651826122104,-6.486775090223396e-07,-3.1895775422395403,-8.07719360444987e-08
0.074,0.004340618586213104,-3.5354268274548534e-06,0.07030049249750821,-0.00018229531563102415,-0.20075655087209957,1.192062645685727e-05,0.28493880368841773,-0.00023626156017263103,2.2066520089066595,-0.006516714807752124,-7.127648476427013,0.00020187499710981797,1.003761670227578,-7.5014063127171156,0.0,0.0,1.1445679276198535,-3.6004702998026216e-05,15.931854176669564,-6.216654440705628e-07,-3.281518383443564,-7.546336216657355e-08
0.075,0.004641675224611812,-3.784431270000268e-06,0.072543886973939,-0.00018895908530804434,-0.20804060537988875,1.2111262304553742e-05,0.3010566383987081,-0.0002490044425454144,2.2433944764307956,-0.006663769677020178,-7.284054507789193,0.00019063584769647221,0.995944054913852,-8.13300130051836,0.0,0.0,1.2972353233601202,-3.863715375415826e-05,16.125721636291594,-5.752635446950291e-07,-3.3768040331209392,-6.494207299365636e-08
0.076,0.004959677798258557,-4.04668944903339e-06,0.07482421781436233,-0.00019577436253047657,-0.21548559175821896,1.2289948247896837e-05,0.3180025736467453,-0.0002622581790331218,2.2803308404233227,-0.006815277222432221,-7.444986378330213,0.00017868594334309476,0.987497379988575,-8.759459310380329,0.0,0.0,1.4550071318368647,-4.142627606901074e-05,16.33053626601049,-5.083249967590562e-07,-3.4745168411807086,-5.0780569887631714e-08
0.077,0.005295483165044726,-4.322733014327318e-06,0.07714168355660607,-0.00020274569295850253,-0.22309611321289866,1.2455922852534119e-05,0.3358053667861691,-0.00027604356529392773,2.317465742243744,-0.006971330428025953,-7.610521454679694,0.00016597460463728218,0.978426980552671,-9.380384657996865,0.0,0.0,1.6166142879854568,-4.4380964339177724e-05,16.545377124772365,-4.1694259817294764e-07,-3.5738999940649974,-3.571841915921851e-08
0.078,0.005649976004639661,-4.613115145009361e-06,0.07949648446565616,-0.00020987768864279854,-0.23087681948353886,1.2608368347490068e-05,0.35449283959493477,-0.00029038213068204277,2.354800909050093,-0.007131995684296006,-7.780706270640206,0.00015244549495594978,0.968738585664833,-9.995385153609874,0.0,0.0,1.781109700280281,-4.751059582608847e-05,16.769140499134476,-2.936194897419191e-07,-3.6742878115166553,-2.317270058907413e-08
0.079,0.006024068182033186,-4.918411211823367e-06,0.08188881928316076,-0.00021717500306233606,-0.23883237795924986,1.2746405268088094e-05,0.37409217739352496,-0.00030529606681400603,2.392334817504597,-0.007297314419537529,-7.955558475711005,0.00013803692059802597,0.9584383147229274,-10.604072349724774,0.0,0.0,1.9477530273483028,-5.0825026578247485e-05,17.000554227146303,-1.2742665784369558e-07,-3.7750566818831697,-1.6599563029275367e-08
0.08,0.006418698254498441,-5.239219361671909e-06,0.0843188816574972,-0.00022464230649149304,-0.2469674452435719,1.2869087284066791e-05,0.394630072465255,-0.0003208081498485417,2.43006237433643,-0.007467303429156988,-8.135067284322027,0.00012268201597869828,0.947532673598851,-11.206061786462268,0.0,0.0,2.1159276895647174,-5.4334583767674864e-05,17.23818772955314,9.514095768153393e-08,-3.8755926924715105,-1.9053334769403283e-08
0.081,0.0068348310090826665,-5.576161014696873e-06,0.08678685626912021,-0.00023228426090688299,-0.25528663823392606,1.2975396153752257e-05,0.416132754584225,-0.0003369416530249645,2.467974611623016,-0.007641954415389934,-8.319192990354157,0.00010630886968546572,0.9360285505292829,-11.800973234391417,0.0,0.0,2.285083611658342,-5.805005313821539e-05,17.480459882752676,3.891947734354857e-07,-3.9752714490915317,-3.30679046745526e-08
0.082,0.007273456949382046,-5.929881261625583e-06,0.08929291466654657,-0.00024010549398075954,-0.26379450417411804,1.3064236783787038e-05,0.4386259402993799,-0.00035372024692871,2.5060583974263633,-0.00782123307387656,-8.507865940191994,8.884063003478066e-05,0.9239332117649259,-12.388430934690755,0.0,0.0,2.454698983031054,-6.19826604004408e-05,17.725646378915123,7.707549968732858e-07,-4.073446385779688,-6.075985499264738e-08
0.083,0.007735591672655548,-6.301049147229862e-06,0.09183721083046097,-0.00024811057193212265,-0.2724954894106481,1.3134432403121562e-05,0.46213472327350097,-0.0003711678856042787,2.544296163914392,-0.008005077951363104,-8.700985236530084,7.019561933452323e-05,0.9112542969809881,-12.968063836485536,0.0,0.0,2.624255454562047,-6.614404551582273e-05,17.971887476103163,1.256388107595839e-06,-4.169442951770031,-1.0400078717335057e-07
0.084,0.008222275093768031,-6.6903578243500286e-06,0.09441987648628336,-0.00025630397116508047,-0.2813939067757186,1.3184719882973536e-05,0.48668342111248303,-0.0003893086771201665,2.5826656558224004,-0.008193399232957827,-8.89841736507053,5.028747985197389e-05,0.8979998144517993,-13.539505831211503,0.0,0.0,2.7932226599352954,-7.054622888134443e-05,18.217196586662208,1.8630723728747755e-06,-4.262556946719779,-1.6456560730518462e-07
0.085,0.008734570483229856,-7.098524561940794e-06,0.09704101618887244,-0.00026469004874254157,-0.29049390165983424,1.3213745252455099e-05,0.5122953894618252,-0.0004081667375907654,2.621139702589076,-0.00838607757746112,-9.099994884115615,2.9025369481563543e-05,0.8841781359926134,-14.102395983856832,0.0,0.0,2.96104922739263,-7.520156847523604e-05,18.459469995932704,2.6081674303881487e-06,-4.352055878611864,-2.442288617970897e-07
0.08600000000000001,0.009273563294357148,-7.5262905899667804e-06,0.09970070220681605,-0.0002732730118356573,-0.29979941694277,1.3220059473355123e-05,0.5389928111272921,-0.0004277660280259865,2.6596860179436126,-0.008582963093115728,-9.305515282935765,6.314220900025029e-06,0.8697979916717911,-14.656378760936454,0.0,0.0,3.127158385320483,-8.012270707850659e-05,18.696497972022446,3.509405977184222e-06,-4.43718260761185,-3.448145748653371e-07
0.08700000000000001,0.009840359760437973,-7.974420763704339e-06,0.10239896923794926,-0.00028205688636348883,-0.30931415703483767,1.3202114547885247e-05,0.566796466080824,-0.0004481301737375581,2.6982670311332093,-0.008783874527831527,-9.514740092067667,-1.7944925469875627e-05,0.8548684642967003,-15.201104255054647,0.0,0.0,3.2909468994611557,-8.532250876042837e-05,18.92597750826116,4.584867343783689e-06,-4.5171607852361175,-4.6821368592772587e-07
0.088,0.010436085247499713,-8.443703030101711e-06,0.10513580899226395,-0.00029104548509801853,-0.3190415513478209,1.3158260040646182e-05,0.5957254870617397,-0.00046928226639737205,2.73683975431468,-0.008988598734529726,-9.727394312983224,-4.385450723906587e-05,0.8393989836768224,-15.736228405913979,0.0,0.0,3.4517864919955787,-9.081398391729399e-05,19.145526900049166,5.85291849577468e-06,-4.591201749563645,-6.1638137995676e-07
0.089,0.011061882352316565,-8.934947679328877e-06,0.10791116468311047,-0.0003002423755598345,-0.3289847175707203,1.3086740101023521e-05,0.6257971048168518,-0.0004912446492271654,2.7753556908465207,-0.009196890461816007,-9.943166222899391,-7.151993962266104e-05,0.8233993206676796,-16.26141321763128,0.0,0.0,3.609027154032339,-9.661020228760687e-05,19.352702298758736,7.33212059597459e-06,-4.658512624521659,-7.913225764512233e-07
0.09,0.01171890873898346,-9.448986365533466e-06,0.11072492547239189,-0.00030965084807118865,-0.3391464251715879,1.298569107485804e-05,0.6570263866668948,-0.0005140386862045887,2.8137607892814156,-0.009408472511354118,-10.161707600867599,-0.00010104902616548102,0.806879580999356,-16.776326972222947,0.0,0.0,3.7620019244992324,-0.00010272419353692791,19.545016315065652,9.041104426086661e-06,-4.71830541530554,-9.950705200026087e-07
0.091,0.012408334710908466,-9.986670882131807e-06,0.11357692092015019,-0.0003192738843662721,-0.34952905958396197,1.2853139794589421e-05,0.6894259719250067,-0.0005376845165983409,2.851995447758294,-0.009623036295083464,-10.382634412374069,-0.00013255128026861898,0.7898501988935007,-17.280644439125226,0.0,0.0,3.9100328056480977,-0.00010916883521430806,19.719958668223658,1.0998419730282108e-05,-4.7698069076219385,-1.229661284187666e-06
0.092,0.013131340518558332,-1.0548871678722483e-05,0.11646691549336942,-0.0003291141271834209,-0.36013458756464467,1.2687002635098298e-05,0.7230058076498667,-0.0005622007965906755,2.8899945732192336,-0.009840242817148745,-10.605527980682723,-0.00016613715949112377,0.7723219304728487,-17.774047080616793,0.0,0.0,4.052437542780611,-0.00011595672813062536,19.875018799334185,1.3222364010318134e-05,-4.8122691764539,-1.4971058056344756e-06
0.093,0.013889113406800052,-1.1136476108924365e-05,0.11939460319279492,-0.00033917385128012404,-0.3709645242282519,1.2485085418094439e-05,0.75777288824172,-0.0005876044302018817,2.9276876994255048,-0.010059724096703146,-10.829936663607192,-0.0002019172170038599,0.7543058469674253,-18.256223253013975,0.0,0.0,4.188537029982832,-0.0001231000594965497,20.007710287233973,1.57307963948308e-05,-4.844980498267229,-1.799360466162235e-06
0.094,0.014682844409250887,-1.1750386401112386e-05,0.12235960235991336,-0.00034945493631856664,-0.3820199022723694,1.2245084241056109e-05,0.7937310024508359,-0.0006139102921880217,2.9649991671184375,-0.010281085038442613,-11.055378044117528,-0.00024000117703832952,0.7358133277217181,-18.726868403511624,0.0,0.0,4.317663125545997,-0.00013061045448158287,20.115596826501584,1.8540942255703416e-05,-4.867276444693641,-2.1382969833883067e-06
0.095,0.01551372490069243,-1.2391517347139883e-05,0.12536145072878158,-0.0003599588420663948,-0.3933012439045416,1.1964587297397184e-05,0.8308804914415427,-0.0006411309460274975,3.0018483688682234,-0.010503905747828151,-11.281341632172172,-0.00028049694365892474,0.7168560530072409,-19.185685262545146,0.0,0.0,4.439166677042156,-0.00013849881721071978,20.196319449733593,2.166919432534106e-05,-4.878550919876063,-2.5156722937328657e-06
0.096,0.016382942922314393,-1.3060793707669122e-05,0.12839960078896737,-0.000370686586343976,-0.40480853596809924,1.1641077742769119e-05,0.8692180216219618,-0.0006692763605292386,3.0381500601857976,-0.010727744277581146,-11.507292063557648,-0.0003235095546280664,0.6974459966450214,-19.632384031552384,0.0,0.0,4.5524255702423995,-0.00014677516259439653,20.24762460252434,2.5130916155416543e-05,-4.878266890857648,-2.933099122115428e-06
0.097,0.017291679298306648,-1.375914733663855e-05,0.1314734155263212,-0.0003816387261253862,-0.4165412087376588,1.1271937648318548e-05,0.9087363759922537,-0.000698353628969428,3.07381473735383,-0.010952139781410254,-11.732672769559557,-0.0003691400944505714,0.6775954184426818,-20.066682566016553,0.0,0.0,4.65685262951732,-0.0001554484407807232,20.267392611782952,2.8940253796665617e-05,-4.865966552821833,-3.392017975728782e-06
0.098,0.018241103566071098,-1.4487514031616643e-05,0.13458216460750444,-0.0003928153421657152,-0.4284981188169517,1.0854453065530124e-05,0.9494242677644514,-0.0007283666949780931,3.1087490811832414,-0.01117661604032902,-11.956910079292875,-0.000417484582788424,0.6573168564508804,-20.488306553674782,0.0,0.0,4.751903210048258,-0.00016452635641436036,20.253666028780167,3.310996151655744e-05,-4.841280670199966,-3.893671343743242e-06
0.099,0.019232369746017407,-1.5246830121251716e-05,0.1377250210720534,-0.000404216027482391,-0.440677536521802,1.0385820209290999e-05,0.9912661799463103,-0.0007593160896350725,3.1428564645489647,-0.011400685316675733,-12.179417704850314,-0.000468632856239124,0.6366231190440093,-20.89698968777965,0.0,0.0,4.837082333697313,-0.00017401518526945626,20.20467728049939,3.7651247163261736e-05,-4.80393684170698,-4.439080911924397e-06
0.1,0.02026661198046004,-1.6038028805633044e-05,0.1409010585921905,-0.0004158398799637908,-0.4530771380702779,9.863152746409226e-06,1.0342422344426325,-0.0007911986843813299,3.1760375201370854,-0.01162385248139982,-12.399601548475852,-0.0005226674628817727,0.6155272768301523,-21.292473835304172,0.0,0.0,4.911951230664158,-0.00018391959117874932,20.11887502938166,4.2573642400249715e-05,-4.753766452859434,-5.029028599438707e-06
0.101,0.021344940074456337,-1.686203627002572e-05,0.14410924935557595,-0.00042768549931547766,-0.4656940028314145,9.283490156474396e-06,1.078328093996296,-0.0008240074643926742,3.208190763385454,-0.01184561935168687,-12.6168647611366,-0.0005796625899348291,0.5940426543954066,-21.674509199984207,0.0,0.0,4.976133158825375,-0.00019424244649006447,19.994948625145803,4.7884902461142475e-05,-4.690710103661429,-5.6640421876027725e-06
0.10200000000000001,0.022468434974415964,-1.7719767597013516e-05,0.14734846261974308,-0.00043975098848437523,-0.47852461580495204,8.64380711120337e-06,1.123494899959626,-0.0008577313269877966,3.2392132641671108,-0.012065489168897589,-12.830612973537546,-0.0006396830452710262,0.5721828218877915,-22.042854480095105,0.0,0.0,5.029318383489087,-0.00020498465952746824,19.83185003536933,5.35909393093569e-05,-4.6148213316430144,-6.3443862333788475e-06
0.10300000000000001,0.023638144222870305,-1.8612122506457395e-05,0.1506174639791428,-0.00045203395962577545,-0.4915648754191041,7.941023797853864e-06,1.1697092484543408,-0.0008923549094438803,3.2690013593997134,-0.0122829711414002,-13.04025961415204,-0.0007027833133495065,0.5499615864460481,-22.39727702086306,0.0,0.0,5.071268214286509,-0.00021614501270041022,19.628812665625166,5.9695791146813884e-05,-4.5262684905286505,-7.070058843322959e-06
0.10400000000000001,0.02485507742982292,-1.9539980956725304e-05,0.1539149153766584,-0.0004645315445992049,-0.5048101066436218,7.172017092527232e-06,1.216933206952616,-0.0009278584502679099,3.2974513975156183,-0.012497584973429444,-13.24523122451769,-0.0007690067053266319,0.5273929834787588,-22.737552961414842,0.0,0.0,5.101818014993223,-0.0002277200149751108,19.385366526010458,6.620163012931984e-05,-4.425334691196622,-7.840794728550307e-06
0.105,0.02612020180253018,-2.050419864424739e-05,0.15723937588130482,-0.0004772404098989839,-0.518255079323702,6.333632470832316e-06,1.2651243727072592,-0.0009642176875220832,3.324460504646399,-0.012708865299778997,-13.44497268008017,-0.0008383846216949161,0.5044912677992803,-23.06346737617311,0.0,0.0,5.120879127272374,-0.00023970377238593363,19.10134926866466,7.310880895378134e-05,-4.312415762459841,-8.656074772926747e-06
0.106,0.0274344377763247,-2.150560244148175e-05,0.16058930324281387,-0.0004901567758459893,-0.5318940315490647,5.4226965270308e-06,1.3142359737945208,-0.001001403797234362,3.3499273615090472,-0.012916365947005393,-13.638952225362726,-0.000910935943801516,0.4812709046220959,-23.37481441060808,0.0,0.0,5.128439680262068,-0.000252087880112056,18.776912709001856,8.041594573356149e-05,-4.188016242359859,-9.515142132513624e-06
0.107,0.028798654789153742,-2.2544985815733976e-05,0.16396305622218327,-0.0005032764397908557,-0.5457206977842565,4.436029958962295e-06,1.3642170128290392,-0.0010393833742522265,3.3737529793694128,-0.0131196639448665,-13.826666235191778,-0.0009866665680685056,0.4577465604262803,-23.671397411259562,0.0,0.0,5.124564292559684,-0.0002648613393727511,18.41252454936705,8.812004532748916e-05,-4.0527434637220905,-1.0417024653861027e-05
0.108,0.03021366724183955,-2.3623104272869873e-05,0.1673588976853169,-0.0005165948030076702,-0.5597283414032617,3.3704608652058366e-06,1.4150124526858099,-0.0010781184571358965,3.3958414631336375,-0.013318363216814542,-14.007643619005247,-0.0010655690937564578,0.43393309369183475,-23.95302904994756,0.0,0.0,5.109392708090064,-0.00027801050200468026,18.00896514408262,9.621665409055838e-05,-3.9072998483166717,-1.1360563163250508e-05
0.109,0.03168023068467405,-2.4740670870727464e-05,0.17077499843491897,-0.0005301069008929761,-0.5739097911959622,2.2228381934250285e-06,1.4665634428344978,-0.0011175665978575915,3.416100749602091,-0.013512097885305862,-14.181449792700583,-0.0011476226717808081,0.4098455455147514,-24.219531442092755,0.0,0.0,5.0831374384814465,-0.00029151904508406984,17.567319274888504,0.00010470004392206562,-3.7524735700474956,-1.2344444950502808e-05
0.11,0.0331990382688426,-2.5898351846927565e-05,0.17420944174414144,-0.0005438074360291839,-0.5882574813477252,9.90045174903464e-07,1.5188075841685487,-0.001157680976200102,3.4344433092224613,-0.013700535136207736,-14.347690151762986,-0.0012327930185215645,0.38549913010673786,-24.47073625907222,0.0,0.0,5.046080507992233,-0.00030536797735832466,17.088963040454235,0.00011356342054462462,-3.5891277875984837,-1.3367241561611205e-05
0.111,0.03477071749834667,-2.7096762404785225e-05,0.177660228544438,-0.0005576908136255563,-0.6027634943379516,-3.309874199796519e-07,1.5716792295040656,-0.0011984105578576598,3.4507868002965703,-0.013883377596372348,-14.506012990226496,-0.0013210325948831158,0.3609092251855914,-24.706484834539374,0.0,0.0,4.998569409883903,-0.0003195356785733789,16.57554609745406,0.0001227991501903441,-3.4181886799741807,-1.4427449835589797e-05
0.112,0.03639582731458555,-2.8336462699147955e-05,0.18112528320995203,-0.0005717511788147532,-0.6174196061599756,-1.743268367164323e-06,1.6251098162388833,-0.001239700294362732,3.4650546655140344,-0.014060365189196932,-14.656111822023966,-0.0014122809471846709,0.33609136226230635,-24.92662826464106,0.0,0.0,4.941012384327969,-0.00033399797204703016,16.028969618135587,0.0001323989983227749,-3.2406325440843724,-1.5523534982373103e-05
0.113,0.03807485554159546,-2.961795406126993e-05,0.1846024598718301,-0.000585982455259152,-0.6322173332341237,-3.249733570074528e-06,1.679028227009908,-0.0012814913621219735,3.4771766618780915,-0.014231276444398777,-14.797727074148057,-0.001506465202910205,0.3110612168310354,-25.131027502068406,0.0,0.0,4.873873118468406,-0.00034872823006998685,15.451360445173837,0.000142354373698751,-3.057472232154188,-1.6653974408101408e-05
0.114,0.03980821671517535,-3.094167549834018e-05,0.18808954918834728,-0.0006003783845091851,-0.6471479803685942,-4.8532342811009355e-06,1.733361173579888,-0.0013237214370702517,3.48708931651717,-0.014395929250033147,-14.930647134470604,-0.0016035007110264076,0.28583459846811443,-25.319553443882082,0.0,0.0,4.797664952169964,-0.0003636975109427283,14.845042024303007,0.0001526565709772934,-2.869743218808046,-1.781730095687555e-05
0.115,0.04159625031381793,-3.230800049910865e-05,0.19158428549084086,-0.0006149325655559134,-0.6622026891193672,-6.556526094682442e-06,1.7880335986425824,-0.0013663250007684685,3.4947363024935805,-0.014554181046728324,-15.054708750772996,-0.0017032918135815066,0.26042744084639413,-25.492087013056477,0.0,0.0,4.712944652892969,-0.00037887472570561986,14.212502775042582,0.00016329700521030606,-2.678489593725557,-1.901214425651722e-05
0.116,0.04343921940360141,-3.371723417230956e-05,0.1950843542213157,-0.0006296384940318944,-0.677372485910629,-8.362258827388333e-06,1.8429690897834778,-0.001409233673200906,3.5000687304748435,-0.014705928475980899,-15.169796791261867,-0.0018057327327058916,0.23485579167118933,-25.648519233691335,0.0,0.0,4.620305805536344,-0.0003942268319195436,13.556362617124767,0.0001742674318933481,-2.4847502761197555,-2.023726892963987e-05
0.117,0.04533730970310442,-3.5169610739398645e-05,0.19858739957528165,-0.0006444896005378162,-0.6926483293009424,-1.0272967382399898e-05,1.8980902995030124,-0.0014523765670890858,3.503045353965956,-0.014851106505921838,-15.275843390313351,-0.001910708555011565,0.2091358025442073,-25.788751299843213,0.0,0.0,4.520371853426017,-0.00040971905123038724,12.879338403487617,0.00018556014680166203,-2.2895457418311245,-2.1491608557239098e-05
0.11800000000000001,0.047290629068139245,-3.6665291397643606e-05,0.20209103226293457,-0.0006594792876067991,-0.7080211558170497,-1.2291063676182069e-05,1.9533193650348217,-0.0014956806582449638,3.503632687652902,-0.014989687068982885,-15.372826516107233,-0.0020180962937821705,0.18328371876184657,-25.912694637933495,0.0,0.0,4.41378882933549,-0.0004253151069259877,12.184209019605964,0.00019716816057042578,-2.093865541939887,-2.2774294454205162e-05
0.11900000000000001,0.04929920738984511,-3.820436256398809e-05,0.20559283730315472,-0.0006746009648628734,-0.723481923825882,-1.4418829684478259e-05,2.008578321705868,-0.0015390711663444867,3.5018050402201446,-0.01512167725607434,-15.46076800883228,-0.0021277660082961902,0.1573158690543231,-26.0202709626933,0.0,0.0,4.30121783305597,-0.00044097747728768843,11.473780894294762,0.0002090853438777384,-1.8986568724063373,-2.4084678526302316e-05
0.12,0.05136299689366032,-3.9786834504502937e-05,0.20909038176787692,-0.0006898480819837611,-0.7390216549747414,-1.665841164363571e-05,2.0637895038152094,-0.0015824719405148477,3.4975444647222083,-0.015247117120887659,-15.539731148859397,-0.0022395819591574523,0.13124865527209092,-26.111412326610193,0.0,0.0,4.1833273445339305,-0.0004566676602651011,10.75085463072881,0.00022130654012653578,-1.7048144260834959,-2.542234971567314e-05
0.121,0.05348187282112879,-4.1412640348793524e-05,0.21258122239903868,-0.0007052141591391331,-0.7546314727979748,-1.9011815422265532e-05,2.1188759274684683,-0.0016258058442905894,3.490840631161769,-0.015366077155371947,-15.609817823233419,-0.0023534037786298203,0.10509854202608353,-26.18606116284526,0.0,0.0,4.060785505906655,-0.0004723464448712615,10.018193410869474,0.0002338276436612539,-1.513171720423338,-2.6787143794335837e-05
0.122,0.05565563447162218,-4.308163548358754e-05,0.21606291302635022,-0.0007206928146420284,-0.7703026381635264,-2.148090305794645e-05,2.1737616504933905,-0.0016689951347940153,3.4816906273115444,-0.015478655502895278,-15.671165365551596,-0.0024690876356809168,0.07888204628831381,-26.244170321593543,0.0,0.0,3.9342525558037806,-0.0004879741847096627,9.278493754931645,0.00024664564275001845,-1.3244940459008245,-2.8179146518566887e-05
0.123,0.05788400657707654,-4.479359731500475e-05,0.21953301172133163,-0.0007362777896207383,-0.7860265813118616,-2.406739043465351e-05,2.2283721054543584,-0.001711961831417211,3.470098694981405,-0.015584974978709854,-15.723943148335229,-0.002586487376707057,0.05261572695939748,-26.285703099864907,0.0,0.0,3.8043736463879463,-0.000503511069202012,8.534359133440944,0.00025975862775627336,-1.1394731223450685,-2.9598690396920287e-05
0.124,0.06016664097990969,-4.654822538480896e-05,0.22298908763118416,-0.000751962969588543,-0.801794930319885,-2.6772846059342154e-05,2.282634402833147,-0.0017546280698042109,3.4560759098525224,-0.01568517996780476,-15.768349008023408,-0.0027054556246886457,0.026316174409600133,-26.310633264666407,0.0,0.0,3.671772307541884,-0.0005189173883769215,7.788276836381964,0.0002731657660492994,-0.9587234852538926,-3.104634553658293e-05
0.125,0.06250311858248986,-4.834514182233546e-05,0.22642872744484874,-0.0007677424028564632,-0.8175995359004536,-2.9598690881078214e-05,2.3364776025801754,-0.0017969164375265002,3.4396398136645665,-0.01577943326792023,-15.804605580568637,-0.0028258448217360604,1.2824471291478598e-16,-26.31894506957162,0.0,0.0,3.537044833086356,-0.0005341537874896595,7.042598405338951,0.00028686724619145,-0.7827805556898374,-3.252290520387548e-05
0.126,0.06489295153586863,-5.018389211082048e-05,0.2298495414527967,-0.0007836103157969641,-0.8334324925208391,-3.25461990836056e-05,2.3898329533787717,-0.0018387502884850198,3.4208140079479588,-0.015867912940500915,-15.832956620385472,-0.00294750820252739,-0.02631617440959988,-26.310633264666407,0.0,0.0,3.4007558426023037,-0.0005491815082499954,6.299523833490327,0.0003008641947252617,-0.6121002808727533,-3.4029366854794436e-05
0.127,0.06733558563587962,-5.206394614454942e-05,0.233249169171445,-0.000799561125021989,-0.8492861558883141,-3.561649977248989e-05,2.442634100010981,-0.001880054033728936,3.399627718648306,-0.01595080922502488,-15.853663367475104,-0.0030703006888842884,-0.05261572695939722,-26.285703099864907,0.0,0.0,3.2634352152070933,-0.0005639626140121754,5.5610896375140815,0.0003151585694129386,-0.44706017429776607,-3.5566909454423694e-05
0.128,0.06983040289595936,-5.3984699551578865e-05,0.23662528451235457,-0.0008155894465850418,-0.8651531569058961,-3.881057947102732e-05,2.494817260079748,-0.0019207534070294463,3.376115340909552,-0.016028321563052752,-15.867001017582002,-0.0031940796985374252,-0.07888204628831355,-26.244170321593543,0.0,0.0,3.125576500691432,-0.0005784601968973369,4.829160807103497,0.00032975303302359684,-0.287961540196349,-3.713686790882802e-05
0.129,0.07237672426792265,-5.5945475255742327e-05,0.23997560048534156,-0.0008316901023533273,-0.8810264122450112,-4.212928533487856e-05,2.5463213719632867,-0.001960775704163464,3.350315972986976,-0.01610065576828554,-15.873255339115094,-0.003318705863851242,-0.10509854202608326,-26.18606116284526,0.0,0.0,2.987636798598852,-0.0005926385654414106,4.105426543651213,0.00034465081171976443,-0.13503264218047678,-3.8740705384371456e-05
0.13,0.07497381248414667,-5.794552525117246e-05,0.24329787343311696,-0.0008478581237221093,-0.8968991317142831,-4.557332899365179e-05,2.5970882162240185,-0.0020000499954301353,3.322272947775395,-0.016168021368782086,-15.87271946927193,-0.0034440436587732325,-0.13124865527209068,-26.111412326610196,0.0,0.0,2.8500379744156827,-0.000606463411958774,3.391399611183894,0.00035985554179709933,0.011567427767265132,-4.037998419744757e-05
0.131,0.07762087499693063,-5.998403256260411e-05,0.24658990680290477,-0.0008640887528602134,-0.9127648226255617,-4.914329092808971e-05,2.6470625127839535,-0.0020385073114316467,3.2920333697878172,-0.016230629138104066,-15.865690911278557,-0.003569961934437921,-0.15731586905432282,-26.020270962693303,0.0,0.0,2.7131689763999525,-0.0006199019593554175,2.6884190411360613,0.0003753711080442828,0.1517444072087063,-4.2056335836879314e-05
0.132,0.08031706699300563,-6.206011336519744e-05,0.2498495544675363,-0.0008803774416843926,-0.928617291371194,-5.2839625293713645e-05,2.6961919960750036,-0.0020760808025933218,3.2596476646315207,-0.016288688824179238,-15.852468745632299,-0.0036963343656239355,-0.18328371876184682,-25.91269463793349,0.0,0.0,2.5773889494189435,-0.000632923087593978,1.9976558594503588,0.0003912014763993017,0.28546424293032113,-4.377143054856043e-05
0.133,0.08306149446318116,-6.417281923847326e-05,0.2530747236146643,-0.0008967198487628486,-0.9444506424323076,-5.666266510533003e-05,2.744427470175533,-0.0021127058732758283,3.2251691471280552,-0.016342407078455908,-15.833351061113657,-0.0038230398116163855,-0.2091358025442075,-25.788751299843213,0.0,0.0,2.443030830151056,-0.0006454974403946385,1.3201214415182554,0.00040735052297652575,0.4127483461314136,-4.55269467837936e-05
0.134,0.08585321730894484,-6.632113953012007e-05,0.2562633772279015,-0.0009131118343463313,-0.9602592750384563,-6.061262770132474e-05,2.7917228457636774,-0.002148320291646814,3.1886536132371663,-0.01639198558348276,-15.808632606148747,-0.0039499625959947045,-0.23485579167118953,-25.64851923369133,0.0,0.0,2.310405155357943,-0.0006575975130488441,0.6566780498017222,0.00042382186100841935,0.5336688350593299,-4.732454070279092e-05
